name,address,phone,website,rating,reviews,status,lat,lng,category,commerce_mode,opening_hours,google_maps_url,onboarding_status,source
ANJANEYA COSMETIC AND FANCY,"ground Floor, NO 261, AS Char St, Santhusapet, Chickpet, Bengaluru, Karnataka 560053, India",098793 00949,,3.3,45,OPERATIONAL,12.969684599999999,77.5754441,Cosmetics,A,Monday: 8:30 AM – 9:00 PM,https://maps.google.com/?cid=391075739629316219&g_mp=Cidnb29nbGUubWFwcy5wbGFjZXMudjEuUGxhY2VzLlNlYXJjaFRleHQQAhgEIAA,pending,Google Maps API
Beauty Collection,"Shop Number 23 Ground Floor, P S Lane, Cross, Chickpet, Bengaluru, Karnataka 560053, India",070732 97562,,4.9,59,OPERATIONAL,12.9700933,77.5741776,Cosmetics,A,Monday: 9:00 AM – 9:00 PM,https://maps.google.com/?cid=3877061355894648831&g_mp=Cidnb29nbGUubWFwcy5wbGFjZXMudjEuUGxhY2VzLlNlYXJjaFRleHQQAhgEIAA,pending,Google Maps API
HEERA NOVELTIES-wholesale cosmetic dealer in bangalore,"GROUND FLOOR, SAFENA COMPLEX, Kumbarpet Main Rd, opposite to FMC COMPLEX, Ragipet, Kumbarpet, Dodpete, Nagarathpete, Bengaluru, Karnataka 560002, India",098867 97356,,4.6,66,OPERATIONAL,12.9662788,77.57859549999999,Cosmetics,A,Monday: 9:00 AM – 9:00 PM,https://maps.google.com/?cid=4539997418399342961&g_mp=Cidnb29nbGUubWFwcy5wbGFjZXMudjEuUGxhY2VzLlNlYXJjaFRleHQQAhgEIAA,pending,Google Maps API
JAI MAA COSMETICS,"BMG Complex, Avenue Road Cross, Medarpet, Kumbarpet, Dodpete, Nagarathpete, Bengaluru, Karnataka 560002, India",081970 66459,,4.7,9,OPERATIONAL,12.9672734,77.5784648,Cosmetics,A,Monday: Open 24 hours,https://maps.google.com/?cid=8892373309116832073&g_mp=Cidnb29nbGUubWFwcy5wbGFjZXMudjEuUGxhY2VzLlNlYXJjaFRleHQQAhgEIAA,pending,Google Maps API
Kumar Stores - Authentic Beauty Products | Cosmetics | Makeup Products,"28, Diwan Khan Ln, Medarpet, Kumbarpet, Ganigarpet, Nagarathpete, Bengaluru, Karnataka 560002, India",098456 35730,https://www.kumarstores.in/,4.2,2541,OPERATIONAL,12.966941199999999,77.5790852,Cosmetics,A,Monday: 9:00 AM – 8:30 PM,https://maps.google.com/?cid=1103325094954457741&g_mp=Cidnb29nbGUubWFwcy5wbGFjZXMudjEuUGxhY2VzLlNlYXJjaFRleHQQAhgEIAA,pending,Google Maps API
MAHALAXMI GENERAL STORES,"40/1, patnool pet, O.T.Pet, KR Market, Mamulpet, Chickpet, Bengaluru, Karnataka 560053, India",080 2238 6558,,4.5,4,OPERATIONAL,12.967283499999999,77.57633899999999,Cosmetics,A,Monday: 9:00 AM – 8:30 PM,https://maps.google.com/?cid=14338460478889777536&g_mp=Cidnb29nbGUubWFwcy5wbGFjZXMudjEuUGxhY2VzLlNlYXJjaFRleHQQAhgEIAA,pending,Google Maps API
MAMTA COSMETICS,"3rd FLOOR, Laxmi Complex, SHOP NO 5/6, PS Char Ln, Santhusapet, Chickpet, Bengaluru, Karnataka 560053, India",080508 69783,https://wixonstores.quickeselling.com/,5,3,OPERATIONAL,12.9695889,77.5749441,Cosmetics,A,Monday: 9:00 AM – 9:00 PM,https://maps.google.com/?cid=13532227359540302870&g_mp=Cidnb29nbGUubWFwcy5wbGFjZXMudjEuUGxhY2VzLlNlYXJjaFRleHQQAhgEIAA,pending,Google Maps API
MANOJ FANCY STORE & DIGITAL SERVICES,"Shop No 2, Pawan Plaza, No 204, Akkipete Main Rd, Akkipete, Chickpet, Bengaluru, Karnataka 560053, India",080737 48067,http://www.vgotrip.in/,4.7,26,OPERATIONAL,12.970234399999999,77.5716393,Cosmetics,A,Monday: 10:00 AM – 10:00 PM,https://maps.google.com/?cid=17892877430923395483&g_mp=Cidnb29nbGUubWFwcy5wbGFjZXMudjEuUGxhY2VzLlNlYXJjaFRleHQQAhgEIAA,pending,Google Maps API
MARUTHI COSMETICS,"No 6/4, Laxmi Complex, AS Char St, behind RAGHAVENDRA HOTEL, Santhusapet, Chickpet, Bengaluru, Karnataka 560053, India",077603 20402,https://youtu.be/UshXPOGngK4,4.8,23,OPERATIONAL,12.9694372,77.574765,Cosmetics,A,Monday: 10:00 AM – 8:00 PM,https://maps.google.com/?cid=962231426381873219&g_mp=Cidnb29nbGUubWFwcy5wbGFjZXMudjEuUGxhY2VzLlNlYXJjaFRleHQQAhgEIAA,pending,Google Maps API
MATAJI COSMETICS,"9 ,Mohana Jineshwara Complex , ground floor 3rd cross, PS Char Ln, Santhusapet, Chickpet, Bengaluru, Karnataka 560053, India",089553 95027,https://www.instagram.com/mataji_cosmetics?igsh=MXZrZ2o4YTUzaHl1Yw==,4.9,61,OPERATIONAL,12.9702089,77.57384830000001,Cosmetics,A,Monday: 8:00 AM – 10:00 PM,https://maps.google.com/?cid=7578673876986605067&g_mp=Cidnb29nbGUubWFwcy5wbGFjZXMudjEuUGxhY2VzLlNlYXJjaFRleHQQAhgEIAA,pending,Google Maps API
Mangal Agencies-Best cosmetics shop in Bangalore-wholesale and retail store,"K 4, Basement Floor, FMC Complex, Kumbarpet Main Rd, Ragipet, KR Market, Dodpete, Nagarathpete, Bengaluru, Karnataka 560002, India",080 2221 3090,,4.7,10,OPERATIONAL,12.966467999999999,77.578458,Cosmetics,A,Monday: 8:00 AM – 8:30 PM,https://maps.google.com/?cid=13835666744481140584&g_mp=Cidnb29nbGUubWFwcy5wbGFjZXMudjEuUGxhY2VzLlNlYXJjaFRleHQQAhgEIAA,pending,Google Maps API
Meenakshi Marketing,"Metro Station, #64, Vinayaka, Gundopanth St, near Chickpete, KR Market, Mamulpet, Chickpet, Bengaluru, Karnataka 560053, India",080 4148 5242,,4.5,10,OPERATIONAL,12.967401299999999,77.5759526,Cosmetics,A,Monday: 10:15 AM – 8:30 PM,https://maps.google.com/?cid=4715226939489658772&g_mp=Cidnb29nbGUubWFwcy5wbGFjZXMudjEuUGxhY2VzLlNlYXJjaFRleHQQAhgEIAA,pending,Google Maps API
Payal Impex and cosmetic,"9, Diwan Khan Ln, Ragipet, Kumbarpet, Dodpete, Nagarathpete, Bengaluru, Karnataka 560002, India",090361 02417,,3.9,21,OPERATIONAL,12.9666441,77.57808899999999,Cosmetics,A,Monday: 9:00 AM – 8:30 PM,https://maps.google.com/?cid=3957279796641682840&g_mp=Cidnb29nbGUubWFwcy5wbGFjZXMudjEuUGxhY2VzLlNlYXJjaFRleHQQAhgEIAA,pending,Google Maps API
Prince Beauty world,"Shop no 1 ground floor, Kesar plaza, 20/1, 2nd Cross, Santhusapet, Chickpet, Bengaluru, Karnataka 560053, India",095354 06937,,5,1,OPERATIONAL,12.9698266,77.5741503,Cosmetics,A,Monday: 9:00 AM – 9:00 PM,https://maps.google.com/?cid=15859023154835338575&g_mp=Cidnb29nbGUubWFwcy5wbGFjZXMudjEuUGxhY2VzLlNlYXJjaFRleHQQAhgEIAA,pending,Google Maps API
Rajguru Store,"2, SVK Complex, 20, Chowdeshwari Temple St, near Raja market, Medarpet, Kumbarpet, Ganigarpet, Nagarathpete, Channarayaswamy, Bengaluru, Karnataka 560002, India",089518 28340,https://nfc.dgtechsoln.com/rajguru-store/,4.8,103,OPERATIONAL,12.966908499999999,77.5793752,Cosmetics,A,Monday: 10:00 AM – 8:00 PM,https://maps.google.com/?cid=16257018314007803261&g_mp=Cidnb29nbGUubWFwcy5wbGFjZXMudjEuUGxhY2VzLlNlYXJjaFRleHQQAhgEIAA,pending,Google Maps API
Sagar Stores,"Purvi Plaza Shop No F-8, 1st floor, Police Station, Cottonpet Main Rd, near Cottonpet, Bakshi Gardens, Cottonpete, Bengaluru, Karnataka 560053, India",089043 12517,https://www.sagarstores.in/,4.7,141,OPERATIONAL,12.967441100000002,77.5700962,Cosmetics,A,Monday: 10:00 AM – 8:00 PM,https://maps.google.com/?cid=12279262174758461704&g_mp=Cidnb29nbGUubWFwcy5wbGFjZXMudjEuUGxhY2VzLlNlYXJjaFRleHQQAhgEIAA,pending,Google Maps API
Shree Cosmetics And Decoration,"No 8 1st Floor, S R Complex, PS Char Ln, Santhusapet, Chickpet, Bengaluru, Karnataka 560053, India",096864 60046,,4.8,33,OPERATIONAL,12.969648699999999,77.574986,Cosmetics,A,Monday: 8:00 AM – 9:00 PM,https://maps.google.com/?cid=4296243584771207450&g_mp=Cidnb29nbGUubWFwcy5wbGFjZXMudjEuUGxhY2VzLlNlYXJjaFRleHQQAhgEIAA,pending,Google Maps API
Shree Marketing,"294 / 1, Ragipet, Old Tharagupet, Mamulpet, Chickpet, Bengaluru, Karnataka 560053, India",095357 24091,https://site.dgtechsoln.com/shree-marketing/,5,25,OPERATIONAL,12.967068999999999,77.5773327,Cosmetics,A,Monday: 9:00 AM – 9:00 PM,https://maps.google.com/?cid=16755584272619493055&g_mp=Cidnb29nbGUubWFwcy5wbGFjZXMudjEuUGxhY2VzLlNlYXJjaFRleHQQAhgEIAA,pending,Google Maps API
Vaibhav Stores,"F3, 1091, Nagarathpet Main Rd, above ICICI Bank, Halsurpete, Nagarathpete, Bengaluru, Karnataka 560002, India",078296 32084,https://www.vaibhavstores.in/?utm_source=Google+Map+Pack&utm_medium=Local+SEO&utm_campaign=GMB,4.5,3093,OPERATIONAL,12.9655582,77.58462589999999,Cosmetics,A,Monday: 10:00 AM – 7:00 PM,https://maps.google.com/?cid=15719262654793422851&g_mp=Cidnb29nbGUubWFwcy5wbGFjZXMudjEuUGxhY2VzLlNlYXJjaFRleHQQAhgEIAA,pending,Google Maps API
Vishal cosmetics,"7, cross, PS Char Ln, Santhusapet, Chickpet, Bengaluru, Karnataka 560053, India",099503 41006,,4.3,9,OPERATIONAL,12.9702772,77.5740455,Cosmetics,A,Monday: 9:00 AM – 9:00 PM,https://maps.google.com/?cid=8602369920770407479&g_mp=Cidnb29nbGUubWFwcy5wbGFjZXMudjEuUGxhY2VzLlNlYXJjaFRleHQQAhgEIAA,pending,Google Maps API
ADITYA ENTERPRISES Dry fruits and Spices wholesale,"45, O.T.Pet, Old Tharagupet, Mamulpet, Chickpet, Bengaluru, Karnataka 560053, India",098450 34266,,4.7,16,OPERATIONAL,12.967668900000001,77.57618649999999,Dry Fruits,A,Monday: 11:00 AM – 7:30 PM,https://maps.google.com/?cid=12153774204504142213&g_mp=Cidnb29nbGUubWFwcy5wbGFjZXMudjEuUGxhY2VzLlNlYXJjaFRleHQQAhgEIAA,pending,Google Maps API
ANMOL DRY FRUITS,"1/2, 25 th cross, Rangaswamy Temple St, Anchepet, Chickpet, Bengaluru, Karnataka 560053, India",080 2235 4377,,4.5,21,OPERATIONAL,12.9709787,77.57763949999999,Dry Fruits,A,Monday: 9:00 AM – 9:00 PM,https://maps.google.com/?cid=13497622603739111823&g_mp=Cidnb29nbGUubWFwcy5wbGFjZXMudjEuUGxhY2VzLlNlYXJjaFRleHQQAhgEIAA,pending,Google Maps API
"ARVIND TRADING CO.,","14, Ragipet, Old Tharagupet, Mamulpet, Chickpet, Bengaluru, Karnataka 560053, India",099003 50057,,4,57,OPERATIONAL,12.966913199999999,77.57754659999999,Dry Fruits,A,Monday: 11:00 AM – 7:30 PM,https://maps.google.com/?cid=15087320768322374767&g_mp=Cidnb29nbGUubWFwcy5wbGFjZXMudjEuUGxhY2VzLlNlYXJjaFRleHQQAhgEIAA,pending,Google Maps API
Adinath Dry Fruits,"292, Ragipet, Old Tharagupet, Mamulpet, New Tharagupet, Bengaluru, Karnataka 560053, India",098456 58158,,4.3,67,OPERATIONAL,12.967046499999999,77.5771834,Dry Fruits,A,Monday: 10:00 AM – 7:30 PM,https://maps.google.com/?cid=14044130772719618951&g_mp=Cidnb29nbGUubWFwcy5wbGFjZXMudjEuUGxhY2VzLlNlYXJjaFRleHQQAhgEIAA,pending,Google Maps API
Arvind Mewa,"493, Avenue Rd, opp. to Raja Market, Kumbarpet, Mamulpet, Chickpet, Bengaluru, Karnataka 560053, India",080 4161 3434,http://www.arvindmewa.com/,4.6,88,OPERATIONAL,12.9677832,77.5784726,Dry Fruits,A,Monday: 10:15 AM – 8:30 PM,https://maps.google.com/?cid=10186752139775515990&g_mp=Cidnb29nbGUubWFwcy5wbGFjZXMudjEuUGxhY2VzLlNlYXJjaFRleHQQAhgEIAA,pending,Google Maps API
Bangalore dry fruits,"Vasavi Complex, O.T.Pet, Old Tharagupet, Mamulpet, Chickpet, Bengaluru, Karnataka 560053, India",,,4.5,83,OPERATIONAL,12.9680666,77.57515099999999,Dry Fruits,A,Monday: Open 24 hours,https://maps.google.com/?cid=8145816294529690718&g_mp=Cidnb29nbGUubWFwcy5wbGFjZXMudjEuUGxhY2VzLlNlYXJjaFRleHQQAhgEIAA,pending,Google Maps API
DRY FRUIT SPECIALS,"#23/1, 12th Cross Rd, Chinnayanpalya, Wilson Garden, Bengaluru, Karnataka 560027, India",070223 16752,,4.8,475,OPERATIONAL,12.948227300000001,77.5985843,Dry Fruits,A,Monday: 10:00 AM – 10:00 PM,https://maps.google.com/?cid=2877274215456104346&g_mp=Cidnb29nbGUubWFwcy5wbGFjZXMudjEuUGxhY2VzLlNlYXJjaFRleHQQAhgEIAA,pending,Google Maps API
LeafNutz - Dryfruits - wholesale dryfruits - dryfruit shop near me - bangalore dryfruits - leaf nutz,"1, 3rd Main Rd, Nagappa Block, Srirampura, Bengaluru, Karnataka 560021, India",070196 36073,https://leafnutz.in/,5,125,OPERATIONAL,12.9961854,77.5639473,Dry Fruits,A,Monday: 10:30 AM – 9:00 PM,https://maps.google.com/?cid=8632710751493922908&g_mp=Cidnb29nbGUubWFwcy5wbGFjZXMudjEuUGxhY2VzLlNlYXJjaFRleHQQAhgEIAA,pending,Google Maps API
Manak Mewa - RT Street,"232, Rangaswamy Temple St, Anchepet, Chickpet, Bengaluru, Karnataka 560053, India",080 2225 2235,http://www.manakmewa.com/,4.3,2096,OPERATIONAL,12.970753199999999,77.5784024,Dry Fruits,A,Monday: 10:00 AM – 9:00 PM,https://maps.google.com/?cid=4794483391145922739&g_mp=Cidnb29nbGUubWFwcy5wbGFjZXMudjEuUGxhY2VzLlNlYXJjaFRleHQQAhgEIAA,pending,Google Maps API
Marudhar Mewa Dry Fruit Store,"#56, Rangaswamy Temple St, Anchepet, Chickpet, Bengaluru, Karnataka 560053, India",088842 75000,http://www.marudharmewa.com/,4.1,553,OPERATIONAL,12.9708373,77.57811579999999,Dry Fruits,A,Monday: 10:00 AM – 9:30 PM,https://maps.google.com/?cid=3151106799805965708&g_mp=Cidnb29nbGUubWFwcy5wbGFjZXMudjEuUGxhY2VzLlNlYXJjaFRleHQQAhgEIAA,pending,Google Maps API
Mohit Dry Fruits & Spices,"Shop No 10, Pooja Avenue Complex, O.T.Pet, Old Tharagupet, Mamulpet, Chickpet, Bengaluru, Karnataka 560053, India",083065 16212,,4.8,23,OPERATIONAL,12.968021499999999,77.57555959999999,Dry Fruits,A,Monday: 9:30 AM – 9:00 PM,https://maps.google.com/?cid=15645174207562578124&g_mp=Cidnb29nbGUubWFwcy5wbGFjZXMudjEuUGxhY2VzLlNlYXJjaFRleHQQAhgEIAA,pending,Google Maps API
N F Enterprises,"Shop No: 7, JBK Complex, 405, Avenue Rd, Ragipet, KR Market, Mamulpet, Kalasipalya, Bengaluru, Karnataka 560053, India",093423 09146,,4.8,17,OPERATIONAL,12.966624699999999,77.577761,Dry Fruits,A,Monday: 9:00 AM – 9:00 PM,https://maps.google.com/?cid=828318617220821636&g_mp=Cidnb29nbGUubWFwcy5wbGFjZXMudjEuUGxhY2VzLlNlYXJjaFRleHQQAhgEIAA,pending,Google Maps API
PRIYA DRY FRUITS,"5, Slv Complex, no, Cross, Old Tharagupet, Mamulpet, Chickpet, Bengaluru, Karnataka 560053, India",084319 32968,,4.4,55,OPERATIONAL,12.9668092,77.57637729999999,Dry Fruits,A,Monday: 8:00 AM – 9:00 PM,https://maps.google.com/?cid=17039732405966991014&g_mp=Cidnb29nbGUubWFwcy5wbGFjZXMudjEuUGxhY2VzLlNlYXJjaFRleHQQAhgEIAA,pending,Google Maps API
Raja Ram Dry Fruits,"5, SLV COMPLEX, Old Tharagupet, CROSS, Chickpet, Bengaluru, Karnataka 560053, India",098874 29802,https://youtu.be/TasKlkzxu-U?si=MVKq9fqPI_w__QJ5,4.3,3,OPERATIONAL,12.9667748,77.5764021,Dry Fruits,A,Monday: 8:00 AM – 9:00 PM,https://maps.google.com/?cid=17456810196370662907&g_mp=Cidnb29nbGUubWFwcy5wbGFjZXMudjEuUGxhY2VzLlNlYXJjaFRleHQQAhgEIAA,pending,Google Maps API
SHRIDHAR,"16,, Ragipet, Old Tharagupet, Mamulpet, Chickpet, Bengaluru, Karnataka 560053, India",095900 20907,,4.8,43,OPERATIONAL,12.9669384,77.57749989999999,Dry Fruits,A,Monday: 11:00 AM – 8:00 PM,https://maps.google.com/?cid=10096766250213279623&g_mp=Cidnb29nbGUubWFwcy5wbGFjZXMudjEuUGxhY2VzLlNlYXJjaFRleHQQAhgEIAA,pending,Google Maps API
SRI SAI SIDDHI MARKETING,"VSNL Tower, 76/3, Gound Floor, Old Tharagupet, Cross, Chickpet, Bengaluru, Karnataka 560053, India",099455 89854,,4.5,13,OPERATIONAL,12.9671089,77.5763461,Dry Fruits,A,Monday: 9:00 AM – 8:00 PM,https://maps.google.com/?cid=13009868939033883639&g_mp=Cidnb29nbGUubWFwcy5wbGFjZXMudjEuUGxhY2VzLlNlYXJjaFRleHQQAhgEIAA,pending,Google Maps API
Shubham dry fruits,"263/64, Sultanpete Main Rd, O.T.Pet, Old Tharagupet, Mamulpet, Chickpet, Bengaluru, Karnataka 560053, India",095916 82693,,4.3,65,OPERATIONAL,12.967815,77.5761299,Dry Fruits,A,Monday: 10:00 AM – 9:30 PM,https://maps.google.com/?cid=11622601373431420981&g_mp=Cidnb29nbGUubWFwcy5wbGFjZXMudjEuUGxhY2VzLlNlYXJjaFRleHQQAhgEIAA,pending,Google Maps API
Sri Balaji Dry Fruits,"Ground floor, No. 38, Sri Balaji Traders, 560018, New Tharagupet, Bengaluru, Karnataka 560002, India",090019 55761,,4.9,29,OPERATIONAL,12.9639545,77.5710242,Dry Fruits,A,Monday: 10:30 AM – 7:30 PM,https://maps.google.com/?cid=9332709817230227651&g_mp=Cidnb29nbGUubWFwcy5wbGFjZXMudjEuUGxhY2VzLlNlYXJjaFRleHQQAhgEIAA,pending,Google Maps API
Swasthik Dry Fruits,"35, 3rd Main Rd, New Tharagupet, Bengaluru, Karnataka 560002, India",098458 91521,,4.9,59,OPERATIONAL,12.963855599999999,77.5709826,Dry Fruits,A,Monday: 10:30 AM – 8:00 PM,https://maps.google.com/?cid=9805915322918298632&g_mp=Cidnb29nbGUubWFwcy5wbGFjZXMudjEuUGxhY2VzLlNlYXJjaFRleHQQAhgEIAA,pending,Google Maps API
The Bharat Trading Co,"BABA MARKET, 7, Old Kasai Rd, behind raja market, parallel to Avenue Road, Kumbarpet, Ganigarpet, Nagarathpete, Bengaluru, Karnataka 560002, India",,https://www.thebharattradingco.com/,4.6,136,OPERATIONAL,12.967329099999999,77.5791199,Dry Fruits,A,Monday: 11:00 AM – 8:00 PM,https://maps.google.com/?cid=370875208979140255&g_mp=Cidnb29nbGUubWFwcy5wbGFjZXMudjEuUGxhY2VzLlNlYXJjaFRleHQQAhgEIAA,pending,Google Maps API
Amar Electrical Enterprises,"Ganga Complex, 25, AM Ln, near Vijay Vihar Hotel, Huriopet, Chickpet, Bengaluru, Karnataka 560053, India",080 4114 3350,http://www.amarelectrical.in/,4.7,324,OPERATIONAL,12.9698427,77.5763922,Electrical,B,Monday: 10:30 AM – 8:00 PM,https://maps.google.com/?cid=9396107964132096574&g_mp=Cidnb29nbGUubWFwcy5wbGFjZXMudjEuUGxhY2VzLlNlYXJjaFRleHQQAhgEIAA,pending,Google Maps API
Finolex Wires - Sri Hindwani Electricals,"234, SV Ln, near Hotel Vijay Vihar, Mamulpet, Chickpet, Bengaluru, Karnataka 560053, India",099160 65658,https://hindwanielectrical.in/,4.9,754,OPERATIONAL,12.969198899999999,77.5761507,Electrical,B,Monday: 10:30 AM – 8:00 PM,https://maps.google.com/?cid=7919517974921118949&g_mp=Cidnb29nbGUubWFwcy5wbGFjZXMudjEuUGxhY2VzLlNlYXJjaFRleHQQAhgEIAA,pending,Google Maps API
Kushal Electricals,"52,1st floor,2nd cross, M.t street, BVK Iyengar Rd, cross, Chickpet, Bengaluru, Karnataka 560053, India",063616 89226,http://kushalelectricals.com/,5,230,OPERATIONAL,12.970354600000002,77.57657410000002,Electrical,B,Monday: 9:00 AM – 9:30 PM,https://maps.google.com/?cid=6852207275793755157&g_mp=Cidnb29nbGUubWFwcy5wbGFjZXMudjEuUGxhY2VzLlNlYXJjaFRleHQQAhgEIAA,pending,Google Maps API
M.P. Electricals (Halonix Distributors),"114, Laxman Row Road, BVK Iyengar Rd, Huriopet, cross, Bengaluru, Karnataka 560053, India",098866 33560,,4.9,80,OPERATIONAL,12.971480500000002,77.5760518,Electrical,B,Monday: 9:00 AM – 9:00 PM,https://maps.google.com/?cid=12860745485768588616&g_mp=Cidnb29nbGUubWFwcy5wbGFjZXMudjEuUGxhY2VzLlNlYXJjaFRleHQQAhgEIAA,pending,Google Maps API
MAA PADMAVATI ELECTRICALS,"91 shop no.2 srinidhi complex Lakshman rao road, Balepete Main Rd, Huriopet, Chickpet, Bengaluru, Karnataka 560053, India",097425 91136,,4.9,34,OPERATIONAL,12.972014099999999,77.5746451,Electrical,B,Monday: 10:00 AM – 8:00 PM,https://maps.google.com/?cid=3808358164875741309&g_mp=Cidnb29nbGUubWFwcy5wbGFjZXMudjEuUGxhY2VzLlNlYXJjaFRleHQQAhgEIAA,pending,Google Maps API
MAHARAJA ELECTRICALS ( Hi-Fi Authorised distributor ),"No 6/41 DVK COMPLEX A.M lane, BVK Iyengar Rd, near DOSA point, Basettypet, Huriopet, Chickpet, Bengaluru, Karnataka 560053, India",097430 64443,,4.8,172,OPERATIONAL,12.970339599999999,77.5756703,Electrical,B,Monday: 10:30 AM – 8:00 PM,https://maps.google.com/?cid=7729038365173166671&g_mp=Cidnb29nbGUubWFwcy5wbGFjZXMudjEuUGxhY2VzLlNlYXJjaFRleHQQAhgEIAA,pending,Google Maps API
Mahesh Electrical,"50/3 G K Temple Street, Lakshmana Rao Rd, Basettypet, Cross, Chickpet, Bengaluru, Karnataka 560053, India",094484 06665,http://maheshelectrical.com/,4.6,83,OPERATIONAL,12.9716772,77.5750946,Electrical,B,Monday: 10:00 AM – 8:00 PM,https://maps.google.com/?cid=16414659893874262557&g_mp=Cidnb29nbGUubWFwcy5wbGFjZXMudjEuUGxhY2VzLlNlYXJjaFRleHQQAhgEIAA,pending,Google Maps API
Meenakshi Electric Corporation- Anchor electrical product Distributor,"No 8, santha veeraiah lane, Chickpet Rd, near Sudarshan silks, Mamulpet, Chickpet, Bengaluru, Karnataka 560053, India",099801 08100,,4.2,43,OPERATIONAL,12.9691533,77.5761425,Electrical,B,Monday: 10:30 AM – 7:30 PM,https://maps.google.com/?cid=12034818438813756806&g_mp=Cidnb29nbGUubWFwcy5wbGFjZXMudjEuUGxhY2VzLlNlYXJjaFRleHQQAhgEIAA,pending,Google Maps API
Megawatts Electric Co,"New No. 1, 359, Chickpet Rd, opp. Varmahalakshmi Silks, near Vijay Vihar Hotel, Huriopet, Chickpet, Bengaluru, Karnataka 560053, India",095918 88188,,4.9,186,OPERATIONAL,12.969673799999999,77.5761571,Electrical,B,Monday: 10:30 AM – 7:30 PM,https://maps.google.com/?cid=11432122561825163892&g_mp=Cidnb29nbGUubWFwcy5wbGFjZXMudjEuUGxhY2VzLlNlYXJjaFRleHQQAhgEIAA,pending,Google Maps API
Namma Electricals - Your #1 Retail and Wholesale Electrical Supplier in India.,"2nd floor, Vijaya Lakshmi Complex, Old Taluk Cutchery Rd, Santhusapet, Chickpet, Bengaluru, Karnataka 560053, India",099162 28400,,4.8,390,OPERATIONAL,12.970387800000001,77.5746209,Electrical,B,Monday: 9:30 AM – 9:00 PM,https://maps.google.com/?cid=125327811367023561&g_mp=Cidnb29nbGUubWFwcy5wbGFjZXMudjEuUGxhY2VzLlNlYXJjaFRleHQQAhgEIAA,pending,Google Maps API
Nandi Electricals and Hardware,"Shop No. 5, 38, M.T. Street, BVK Iyengar Rd, Huriopet, Chickpet, Bengaluru, Karnataka 560053, India",074165 81008,https://www.youtube.com/@NANDIELECTRICALSHARDWARE,4.8,58,OPERATIONAL,12.9704793,77.5767441,Electrical,B,Monday: 9:00 AM – 8:00 PM,https://maps.google.com/?cid=16997438066245347914&g_mp=Cidnb29nbGUubWFwcy5wbGFjZXMudjEuUGxhY2VzLlNlYXJjaFRleHQQAhgEIAA,pending,Google Maps API
Prakash Electrical & Lighting,"Abhinay Theatre Complex Basement, Maharaja Complex, 39, Hospital Rd, behind Kempegowda, Anchepet, Chickpet, Bengaluru, Karnataka 560053, India",089515 19385,,4.1,17,OPERATIONAL,12.9730454,77.57797149999999,Electrical,B,Monday: 10:00 AM – 9:00 PM,https://maps.google.com/?cid=3689013041026648224&g_mp=Cidnb29nbGUubWFwcy5wbGFjZXMudjEuUGxhY2VzLlNlYXJjaFRleHQQAhgEIAA,pending,Google Maps API
Prakash Electrical Enterprises Pvt. Ltd.,"74/9, Sri Plaza, AM Ln, 7th Cross, Anchepet, Chickpet, Bengaluru, Karnataka 560053, India",099865 06456,https://www.prakashelectrical.com/,4.3,51,OPERATIONAL,12.969849199999999,77.5768748,Electrical,B,Monday: 10:00 AM – 8:00 PM,https://maps.google.com/?cid=15710187569105159228&g_mp=Cidnb29nbGUubWFwcy5wbGFjZXMudjEuUGxhY2VzLlNlYXJjaFRleHQQAhgEIAA,pending,Google Maps API
Shiyal Electric CO,"No 1/2, Shiyal Towers, 3rd Cross Rd, Huriopet, Chickpet, Bengaluru, Karnataka 560053, India",085499 99979,http://www.shiyalelectricals.com/,4.7,330,OPERATIONAL,12.9697497,77.5761472,Electrical,B,Monday: 11:00 AM – 8:00 PM,https://maps.google.com/?cid=850125759777662131&g_mp=Cidnb29nbGUubWFwcy5wbGFjZXMudjEuUGxhY2VzLlNlYXJjaFRleHQQAhgEIAA,pending,Google Maps API
VASANT ELECTRICALS- GODOWN,"DANDINA SUBBAMMA LANE, No. 10, KV Temple Street Cross, Balepete, Chickpet, Bengaluru, Karnataka 560053, India",099809 96666,,4.9,242,OPERATIONAL,12.971314699999999,77.57301609999999,Electrical,B,Monday: 10:30 AM – 9:30 PM,https://maps.google.com/?cid=751265870807595321&g_mp=Cidnb29nbGUubWFwcy5wbGFjZXMudjEuUGxhY2VzLlNlYXJjaFRleHQQAhgEIAA,pending,Google Maps API
VEER ELECTRICALS - Your Wholesale Electrical Partner,"shop no B2, 13, MT St, opposite to Ram temple, Huriopet, Chickpet, Bengaluru, Karnataka 560053, India",080 4148 0134,https://www.instagram.com/veerelectricalblr?igsh=MXcxN3luOG5qa3B5Mg==,4.9,37,OPERATIONAL,12.9705414,77.5767192,Electrical,B,Monday: 10:00 AM – 8:00 PM,https://maps.google.com/?cid=815652749133875189&g_mp=Cidnb29nbGUubWFwcy5wbGFjZXMudjEuUGxhY2VzLlNlYXJjaFRleHQQAhgEIAA,pending,Google Maps API
VIRAT ELECTRICALS - Wholesale Electrical Supplier and POLYCAB cable dealer,"6, MT Street, BVK Iyengar Rd, opp. Ram Mandir Road, Huriopet, Chickpet, Bengaluru, Karnataka 560053, India",080888 87025,https://viratelectrical.com/,4.7,63,OPERATIONAL,12.9707929,77.5763017,Electrical,B,Monday: 10:00 AM – 9:00 PM,https://maps.google.com/?cid=11424104649810260233&g_mp=Cidnb29nbGUubWFwcy5wbGFjZXMudjEuUGxhY2VzLlNlYXJjaFRleHQQAhgEIAA,pending,Google Maps API
Vasant Electricals,"84, BVK Iyengar Rd, Huriopet, Chickpet, Bengaluru, Karnataka 560053, India",099869 99996,,4.8,47,OPERATIONAL,12.970191800000002,77.5759681,Electrical,B,Monday: 9:45 AM – 9:00 PM,https://maps.google.com/?cid=11455750634320937228&g_mp=Cidnb29nbGUubWFwcy5wbGFjZXMudjEuUGxhY2VzLlNlYXJjaFRleHQQAhgEIAA,pending,Google Maps API
Vishnu Electricals,"BVK Iyengar Rd, near Sri Ramamandira, Huriopet, Chickpet, Bengaluru, Karnataka 560053, India",099166 91828,https://site.dgtechsoln.com/vishnu-electricals-2/,5,21,OPERATIONAL,12.9705142,77.5763393,Electrical,B,Monday: 9:00 AM – 9:00 PM,https://maps.google.com/?cid=12999382927588667165&g_mp=Cidnb29nbGUubWFwcy5wbGFjZXMudjEuUGxhY2VzLlNlYXJjaFRleHQQAhgEIAA,pending,Google Maps API
Wovolt Electricals and Distributers #1 Wholesale Electrical Shop,"2nd floor, Vijayalakshmi Theatre, Old Taluk Cutchery Rd, Huriopet, Chickpet, Bengaluru, Karnataka 560053, India",096638 79374,http://www.wovolt.com/,4.8,635,OPERATIONAL,12.970422699999999,77.5746791,Electrical,B,Monday: 9:00 AM – 9:30 PM,https://maps.google.com/?cid=16828558794716906607&g_mp=Cidnb29nbGUubWFwcy5wbGFjZXMudjEuUGxhY2VzLlNlYXJjaFRleHQQAhgEIAA,pending,Google Maps API
Balaji Trading Company,"69/1, Patnoolpet Main Road, Old Tharagupete Rd, near HDFC Bank ATM, KR Market, Mamulpet, Chickpet, Bengaluru, Karnataka 560053, India",094489 67699,,4,13,OPERATIONAL,12.967421,77.575986,FMCG,A,Monday: 10:00 AM – 10:00 PM,https://maps.google.com/?cid=10600890749420830646&g_mp=Cidnb29nbGUubWFwcy5wbGFjZXMudjEuUGxhY2VzLlNlYXJjaFRleHQQAhgEIAA,pending,Google Maps API
Choudhary Agencies,"5th Main ""Hira Mansion, 24, 8th Cross Rd, Sampangi Rama Nagara, Sampangi Rama Nagar, Bengaluru, Karnataka 560027, India",,,4.6,17,OPERATIONAL,12.9659006,77.591428,FMCG,A,Monday: 9:00 AM – 8:30 PM,https://maps.google.com/?cid=16994797477968266673&g_mp=Cidnb29nbGUubWFwcy5wbGFjZXMudjEuUGxhY2VzLlNlYXJjaFRleHQQAhgEIAA,pending,Google Maps API
Mahendra Enterprises,"48,1st, Pooja Avenue, Old Tharagupet, Mamulpet, Chickpet, Bengaluru, Karnataka 560053, India",080 4114 0092,,4.7,17,OPERATIONAL,12.967545099999999,77.5760816,FMCG,A,Monday: 10:00 AM – 8:30 PM,https://maps.google.com/?cid=15347766395207592350&g_mp=Cidnb29nbGUubWFwcy5wbGFjZXMudjEuUGxhY2VzLlNlYXJjaFRleHQQAhgEIAA,pending,Google Maps API
Mangalchand & Co( A.Mangals brand distributor),"477, K.B Plaza,, Avenue Rd, Ragipet, KR Market, Mamulpet, Chickpet, Bengaluru, Karnataka 560053, India",080 4153 7613,,4.8,8,OPERATIONAL,12.967184699999999,77.5781619,FMCG,A,Monday: 11:00 AM – 8:30 PM,https://maps.google.com/?cid=8429117879821393964&g_mp=Cidnb29nbGUubWFwcy5wbGFjZXMudjEuUGxhY2VzLlNlYXJjaFRleHQQAhgEIAA,pending,Google Maps API
NANDEESHWARA ENTERPRISES,"61, near Kempegowda Police station, Gavipuram Guttahalli, Nanjappa Block, Kempegowda Nagar, Bengaluru, Karnataka 560018, India",099801 24400,,5,8,OPERATIONAL,12.950946100000001,77.56299609999999,FMCG,A,Monday: 9:00 AM – 8:00 PM,https://maps.google.com/?cid=8386340555058042290&g_mp=Cidnb29nbGUubWFwcy5wbGFjZXMudjEuUGxhY2VzLlNlYXJjaFRleHQQAhgEIAA,pending,Google Maps API
NIRMAL DISTRIBUTORS,"50, 1ST FLOOR, SV MARET, ROAD, O.T.Pet, Old Tharagupet, Mamulpet, Chickpet, Bengaluru, Karnataka 560053, India",,,5,2,OPERATIONAL,12.967704,77.575845,FMCG,A,Monday: 10:00 – 11:55 AM,https://maps.google.com/?cid=17666236204816498440&g_mp=Cidnb29nbGUubWFwcy5wbGFjZXMudjEuUGxhY2VzLlNlYXJjaFRleHQQAhgEIAA,pending,Google Maps API
Sri Bhagyalakshmi Trading Corporation,"Shop No. 29, 2nd Main Rd, New Tharagupet, Bengaluru, Karnataka 560002, India",063663 66938,https://nfc.dgtechsoln.com/sri-bhagyalakshmi-trading-corporation/,4.3,262,OPERATIONAL,12.9626927,77.5715903,FMCG,A,Monday: 11:00 AM – 9:00 PM,https://maps.google.com/?cid=8949328280267883065&g_mp=Cidnb29nbGUubWFwcy5wbGFjZXMudjEuUGxhY2VzLlNlYXJjaFRleHQQAhgEIAA,pending,Google Maps API
Sri Kumar Enterprises,"Bundimut near masjid, 2/1, Avenue Rd, Ragipet, KR Market, Mamulpet, Chickpet, Bengaluru, Karnataka 560053, India",094804 58058,,5,1,OPERATIONAL,12.966916699999999,77.5768641,FMCG,A,Monday: 9:00 AM – 9:00 PM,https://maps.google.com/?cid=16041429487819049161&g_mp=Cidnb29nbGUubWFwcy5wbGFjZXMudjEuUGxhY2VzLlNlYXJjaFRleHQQAhgEIAA,pending,Google Maps API
Sri Mata Traders,"Shop No.9 old, opp. D.P.G. Complex, Ragipet, Old Tharagupet, Mamulpet, New Tharagupet, Bengaluru, Karnataka 560053, India",080880 41710,,4.2,21,OPERATIONAL,12.966861,77.5777274,FMCG,A,Monday: 9:00 AM – 9:00 PM,https://maps.google.com/?cid=8045570378351463770&g_mp=Cidnb29nbGUubWFwcy5wbGFjZXMudjEuUGxhY2VzLlNlYXJjaFRleHQQAhgEIAA,pending,Google Maps API
Srinivasa Trading Co,"35, 2nd Main Rd, New Tharagupet, Bengaluru, Karnataka 560002, India",097427 47788,http://srinivasatradingco.com/,4.7,9,OPERATIONAL,12.9632075,77.5716019,FMCG,A,Monday: 11:00 AM – 7:00 PM,https://maps.google.com/?cid=11833874244298645892&g_mp=Cidnb29nbGUubWFwcy5wbGFjZXMudjEuUGxhY2VzLlNlYXJjaFRleHQQAhgEIAA,pending,Google Maps API
Sunday Market,"Arcot Srinivasa Char Cross St, SKR Market, Old Tharagupet, Mamulpet, Chickpet, Bengaluru, Karnataka 560002, India",,,4,4581,OPERATIONAL,12.966600699999999,77.5756949,FMCG,A,Monday: 10:00 AM – 10:30 PM,https://maps.google.com/?cid=6834609232144287432&g_mp=Cidnb29nbGUubWFwcy5wbGFjZXMudjEuUGxhY2VzLlNlYXJjaFRleHQQAhgEIAA,pending,Google Maps API
Veer Bhadra Agencies,"Shop No.1, No.170, Gangavaram Complex, N.T.Pet, Mysore Rd, Jolly Mohalla, Ranasinghpete, Sultanpete, Bengaluru, Karnataka 560053, India",083006 31185,,4.7,6,OPERATIONAL,12.964443,77.5710841,FMCG,A,Monday: 9:00 AM – 8:00 PM,https://maps.google.com/?cid=15442113348235204212&g_mp=Cidnb29nbGUubWFwcy5wbGFjZXMudjEuUGxhY2VzLlNlYXJjaFRleHQQAhgEIAA,pending,Google Maps API
Ambika Readymade | Best wholesaler and shirt manufacturer | Best shirt for men & Good price Range,"2nd floor, shankar complex, Akkipete Main Rd, opp. Babulal Pride, E Block, Manivartapete, Sultanpete, Bengaluru, Karnataka 560053, India",089518 61686,https://wa.me/message/32RM5GC2VVKQC1,5,2,OPERATIONAL,12.9684105,77.5745018,Garments,B,Monday: 9:00 AM – 8:00 PM,https://maps.google.com/?cid=5442498752301683543&g_mp=Cidnb29nbGUubWFwcy5wbGFjZXMudjEuUGxhY2VzLlNlYXJjaFRleHQQAhgEIAA,pending,Google Maps API
Aspire Clothing Inc. [ Brand : AWESPIRE ],"28, DS Ln, Mamulpet, Chickpet, Bengaluru, Karnataka 560053, India",086609 37704,http://www.awespire.in/,4.5,201,OPERATIONAL,12.968342199999999,77.5778656,Garments,B,Monday: 10:30 AM – 9:00 PM,https://maps.google.com/?cid=16858632720194271896&g_mp=Cidnb29nbGUubWFwcy5wbGFjZXMudjEuUGxhY2VzLlNlYXJjaFRleHQQAhgEIAA,pending,Google Maps API
BE DESI- wholesale kurtis in chickpet bangalore// wholesale kurta sets in chickpet bangalore,"24, ground floor, Poonam Plaza, no5, DS Ln, Kumbarpet, Mamulpet, Chickpet, Bengaluru, Karnataka 560053, India",078927 27625,,4.8,6,OPERATIONAL,12.9680165,77.5784011,Garments,B,Monday: 10:00 AM – 8:00 PM,https://maps.google.com/?cid=9053821116883788434&g_mp=Cidnb29nbGUubWFwcy5wbGFjZXMudjEuUGxhY2VzLlNlYXJjaFRleHQQAhgEIAA,pending,Google Maps API
Chetan Collection - Dress Material and Readymade,"Shop No.01 and 07, Pirgal Complex, MT St, Cross, Chickpet, Bengaluru, Karnataka 560053, India",099016 89669,https://youtu.be/5quW74Gqozk?feature=shared,5,45,OPERATIONAL,12.969758700000002,77.5784487,Garments,B,Monday: 9:30 AM – 8:30 PM,https://maps.google.com/?cid=9651951653353758280&g_mp=Cidnb29nbGUubWFwcy5wbGFjZXMudjEuUGxhY2VzLlNlYXJjaFRleHQQAhgEIAA,pending,Google Maps API
DK Hi Fashion,"Shop no 213,1st floor A.S. Char street, RAGHAVENDRA HOTEL, and, near baneshwara temple, cross, Chickpet, Bengaluru, Karnataka 560053, India",098803 00075,,4.9,125,OPERATIONAL,12.9688322,77.5750971,Garments,B,Monday: 8:00 AM – 8:00 PM,https://maps.google.com/?cid=14630642363509274839&g_mp=Cidnb29nbGUubWFwcy5wbGFjZXMudjEuUGxhY2VzLlNlYXJjaFRleHQQAhgEIAA,pending,Google Maps API
JAI DURGA GARMENTS,"7&8 5TH FLOOR, SHARIEF & JAIN TOWER, 210, Sultanpete Main Rd, Santhusapet, Chickpet, Bengaluru, Karnataka 560053, India",094481 23668,http://www.jaidurgagarments.com/,4.2,35,OPERATIONAL,12.9691671,77.5742861,Garments,B,Monday: 9:00 AM – 7:00 PM,https://maps.google.com/?cid=11158692617020111564&g_mp=Cidnb29nbGUubWFwcy5wbGFjZXMudjEuUGxhY2VzLlNlYXJjaFRleHQQAhgEIAA,pending,Google Maps API
Krishna Exports,"1st floor, Padmavati Complex, No 74, Akkipete Main Rd, E Block, Manivartapete, Chickpet, Bengaluru, Karnataka 560053, India",094487 96596,,4.4,16,OPERATIONAL,12.9683969,77.5747186,Garments,B,Monday: 9:00 AM – 9:00 PM,https://maps.google.com/?cid=15405395232813314331&g_mp=Cidnb29nbGUubWFwcy5wbGFjZXMudjEuUGxhY2VzLlNlYXJjaFRleHQQAhgEIAA,pending,Google Maps API
Mahadev Trading Co - A HOUSE OF ALL READYMADE GARMENTS,"No. 03, ground floor 6th cross, Akkipete Main Rd, near City Tower, Santhusapet, Chickpet, Bengaluru, Karnataka 560053, India",094494 48855,https://www.instagram.com/mahadev.trading.co.banglore?igsh=MXducjh5eGV3bmg4cQ==,4.3,10,OPERATIONAL,12.969329199999999,77.5738215,Garments,B,Monday: 9:00 AM – 9:00 PM,https://maps.google.com/?cid=13853386019686043708&g_mp=Cidnb29nbGUubWFwcy5wbGFjZXMudjEuUGxhY2VzLlNlYXJjaFRleHQQAhgEIAA,pending,Google Maps API
Mahendra Apparels,"1st Floor, 42, Gopalakrishna Temple St, opp. Vijayalakshmi Theatre, Basettypet, Huriopet, Chickpet, Bengaluru, Karnataka 560053, India",094480 85848,,4.9,215,OPERATIONAL,12.971058699999999,77.5748211,Garments,B,Monday: 9:30 AM – 8:00 PM,https://maps.google.com/?cid=17369362705494572897&g_mp=Cidnb29nbGUubWFwcy5wbGFjZXMudjEuUGxhY2VzLlNlYXJjaFRleHQQAhgEIAA,pending,Google Maps API
Paras Hosiery,"14, 14th Cross Rd, near Lal Building, Mamulpet, Chickpet, Bengaluru, Karnataka 560053, India",080 4132 5375,,5,28,OPERATIONAL,12.968345399999999,77.57589689999999,Garments,B,Monday: 9:30 AM – 8:00 PM,https://maps.google.com/?cid=3037586513624502983&g_mp=Cidnb29nbGUubWFwcy5wbGFjZXMudjEuUGxhY2VzLlNlYXJjaFRleHQQAhgEIAA,pending,Google Maps API
Parmar Fashions,"TF07, Metro Plaza, AS Char St, Mamulpet, Chickpet, Bengaluru, Karnataka 560053, India",098440 03617,https://www.tinytrends.in/,4.8,132,OPERATIONAL,12.9678895,77.5747018,Garments,B,Monday: 9:50 AM – 7:30 PM,https://maps.google.com/?cid=6463767776396102668&g_mp=Cidnb29nbGUubWFwcy5wbGFjZXMudjEuUGxhY2VzLlNlYXJjaFRleHQQAhgEIAA,pending,Google Maps API
"Pink City Co.,","Metro Station, 96/3, next to Metro Plaza, near Chickpet, O.T.Pet, Mamulpet, Chickpet, Bengaluru, Karnataka 560053, India",098443 37718,,4.9,23,OPERATIONAL,12.9681581,77.5748456,Garments,B,Monday: 10:00 AM – 7:30 PM,https://maps.google.com/?cid=8389530705112846301&g_mp=Cidnb29nbGUubWFwcy5wbGFjZXMudjEuUGxhY2VzLlNlYXJjaFRleHQQAhgEIAA,pending,Google Maps API
Prag fashion wholesale shop,"Number 526 , shree, Tapasi Complex, Avenue Rd, opposite to pathi market, Kumbarpet, Huriopet, Chickpet, Bengaluru, Karnataka 560002, India",,,4.7,45,OPERATIONAL,12.968862999999999,77.579039,Garments,B,Monday: 9:00 AM – 9:30 PM,https://maps.google.com/?cid=15378295293305962424&g_mp=Cidnb29nbGUubWFwcy5wbGFjZXMudjEuUGxhY2VzLlNlYXJjaFRleHQQAhgEIAA,pending,Google Maps API
RADHIKA FASHION,"No.163, 1st floor, Chickpet Rd, opp. Shanti Bhawan, Kumbarpet, Mamulpet, Chickpet, Bengaluru, Karnataka 560053, India",098448 03054,https://radhikafashion.netlify.app/,5,238,OPERATIONAL,12.9681278,77.5783829,Garments,B,Monday: 9:00 AM – 9:00 PM,https://maps.google.com/?cid=298282579390607379&g_mp=Cidnb29nbGUubWFwcy5wbGFjZXMudjEuUGxhY2VzLlNlYXJjaFRleHQQAhgEIAA,pending,Google Maps API
Sri J K Exports,"Ground Floor, 6/B, Sherry Mudanna Lane, near Akkipet Circle, 2nd Cross, Cotton pet, Bengaluru, Karnataka 560053, India",094486 76856,https://srijkexports.com/,4.9,19,OPERATIONAL,12.9695267,77.5713547,Garments,B,Monday: 9:00 AM – 8:00 PM,https://maps.google.com/?cid=5782899126656399146&g_mp=Cidnb29nbGUubWFwcy5wbGFjZXMudjEuUGxhY2VzLlNlYXJjaFRleHQQAhgEIAA,pending,Google Maps API
Sri Mansukh International,"591, Avenue Rd, next to Ganesh bandarkar, Anchepet, Chickpet, Bengaluru, Karnataka 560053, India",083101 57609,,4.9,94,OPERATIONAL,12.970245799999999,77.5798471,Garments,B,Monday: 10:00 AM – 8:00 PM,https://maps.google.com/?cid=15998116953770700823&g_mp=Cidnb29nbGUubWFwcy5wbGFjZXMudjEuUGxhY2VzLlNlYXJjaFRleHQQAhgEIAA,pending,Google Maps API
Wholesale top and readymade,"34, Shanti Bhawan, Huriopet, Chickpet, Bengaluru, Karnataka 560053, India",091488 95690,,4.9,57,OPERATIONAL,12.968575,77.5783747,Garments,B,Monday: 9:00 AM – 8:30 PM,https://maps.google.com/?cid=10036798647191410625&g_mp=Cidnb29nbGUubWFwcy5wbGFjZXMudjEuUGxhY2VzLlNlYXJjaFRleHQQAhgEIAA,pending,Google Maps API
ASHOK BANGLES (Since 1975),"89 Laxman Rao Road, Balepet Cross, near Udupi Krishna Hotel, Huriopet, Chickpet, Bengaluru, Karnataka 560053, India",098449 00809,,4.6,207,OPERATIONAL,12.9722406,77.5745926,General,B,Monday: 9:30 AM – 8:00 PM,https://maps.google.com/?cid=7308601262480294792&g_mp=Cidnb29nbGUubWFwcy5wbGFjZXMudjEuUGxhY2VzLlNlYXJjaFRleHQQAhgEIAA,pending,Google Maps API
Amarnath Enterprises,"Shop, 1st Main Rd, New Tharagupet, Bengaluru, Karnataka 560002, India",098452 50062,https://www.facebook.com/horecaspecialistgrocer/,5,99,OPERATIONAL,12.9640962,77.5721143,General,B,Monday: 10:00 AM – 7:00 PM,https://maps.google.com/?cid=1354698531910640390&g_mp=Cidnb29nbGUubWFwcy5wbGFjZXMudjEuUGxhY2VzLlNlYXJjaFRleHQQAhgEIAA,pending,Google Maps API
Ashok Cards & Gifts,"Srinath Building, Sultanpete Main Rd, Manivartapete, Sultanpete, Bengaluru, Karnataka 560053, India",092423 99919,,3.5,72,OPERATIONAL,12.969279,77.57289310000002,General,B,Monday: 10:00 AM – 9:00 PM,https://maps.google.com/?cid=10480183658022250087&g_mp=Cidnb29nbGUubWFwcy5wbGFjZXMudjEuUGxhY2VzLlNlYXJjaFRleHQQAhgEIAA,pending,Google Maps API
BREEZE AGENCIES,"82, 1st Main, 2nd Cross Rd, New Tharagupet, Bengaluru, Karnataka 560002, India",098801 92366,,4.4,241,OPERATIONAL,12.9623455,77.5720523,General,B,Monday: 10:00 AM – 8:30 PM,https://maps.google.com/?cid=12898165012100384435&g_mp=Cidnb29nbGUubWFwcy5wbGFjZXMudjEuUGxhY2VzLlNlYXJjaFRleHQQAhgEIAA,pending,Google Maps API
Balaji Handlooms,"Lakshmana Rao Rd, Upparpete, Chickpet, Bengaluru, Karnataka 560053, India",094839 53453,https://www.instagram.com/balajihandloomsofficial?igsh=MXE0YnVjcmU1dml2Zg%3D%3D&utm_source=qr,4.4,582,OPERATIONAL,12.972231899999999,77.5741901,General,B,Monday: 9:00 AM – 7:00 PM,https://maps.google.com/?cid=9520857625155118417&g_mp=Cidnb29nbGUubWFwcy5wbGFjZXMudjEuUGxhY2VzLlNlYXJjaFRleHQQAhgEIAA,pending,Google Maps API
Balaji Metal Stores,"75/7 Chidhambaram, Mudaliar, Jolly Mohalla, Ranasinghpete, Sultanpete, Bengaluru, Karnataka 560053, India",094497 94073,,4.2,5,OPERATIONAL,12.965965299999999,77.5726787,General,B,Monday: 9:00 AM – 9:00 PM,https://maps.google.com/?cid=11417758906292726751&g_mp=Cidnb29nbGUubWFwcy5wbGFjZXMudjEuUGxhY2VzLlNlYXJjaFRleHQQAhgEIAA,pending,Google Maps API
Balaji Stores,"Kalyan Building, 77/16, Balepet, Bengaluru, Karnataka 560053, India",080 2225 3212,,5,3,OPERATIONAL,12.9723007,77.5745216,General,B,Monday: 10:00 AM – 8:00 PM,https://maps.google.com/?cid=3470600684045148517&g_mp=Cidnb29nbGUubWFwcy5wbGFjZXMudjEuUGxhY2VzLlNlYXJjaFRleHQQAhgEIAA,pending,Google Maps API
Balepet Circle,"XHCF+CGQ, Balepete Main Rd, Balepete, Chickpet, Bengaluru, Karnataka 560053, India",,,4.7,44,OPERATIONAL,12.9710897,77.5738557,General,B,,https://maps.google.com/?cid=106655565202100952&g_mp=Cidnb29nbGUubWFwcy5wbGFjZXMudjEuUGxhY2VzLlNlYXJjaFRleHQQAhgEIAA,pending,Google Maps API
Bangalore Button Centre,"129, Mahavir Plaza, Near-Basavaraj Market, Kumbarpet, Ragipet, Kumbarpet, Dodpete, Nagarathpete, Bengaluru, Karnataka 560002, India",080 2222 0651,,3.8,43,OPERATIONAL,12.9669057,77.57853349999999,General,B,Monday: 9:00 AM – 7:30 PM,https://maps.google.com/?cid=11414477845835458248&g_mp=Cidnb29nbGUubWFwcy5wbGFjZXMudjEuUGxhY2VzLlNlYXJjaFRleHQQAhgEIAA,pending,Google Maps API
Bangalore Electronics,"124, Sadar Patrappa Rd, Thigalarpet, Dodpete, Nagarathpete, Bengaluru, Karnataka 560002, India",080 4951 1596,https://www.bangaloreelectronics.com/,4,2117,OPERATIONAL,12.9646585,77.5828978,General,B,Monday: 10:30 AM – 9:00 PM,https://maps.google.com/?cid=11138321481464819997&g_mp=Cidnb29nbGUubWFwcy5wbGFjZXMudjEuUGxhY2VzLlNlYXJjaFRleHQQAhgEIAA,pending,Google Maps API
Bangalore Market,"Santhusapet, Chickpet, Bengaluru, Karnataka 560053, India",,https://bangaloremarket.org/,4.1,2198,OPERATIONAL,12.9690429,77.574711,General,B,Monday: 10:30 AM – 8:00 PM,https://maps.google.com/?cid=4920628418539096488&g_mp=Cidnb29nbGUubWFwcy5wbGFjZXMudjEuUGxhY2VzLlNlYXJjaFRleHQQAhgEIAA,pending,Google Maps API
Bangalore Stores,"170, Balepete Main Rd, Balepete, Chickpet, Bengaluru, Karnataka 560053, India",099861 53203,,5,2,OPERATIONAL,12.972857999999999,77.5746497,General,B,Monday: 10:00 AM – 9:00 PM,https://maps.google.com/?cid=10478406769788486000&g_mp=Cidnb29nbGUubWFwcy5wbGFjZXMudjEuUGxhY2VzLlNlYXJjaFRleHQQAhgEIAA,pending,Google Maps API
"Bangalore, nagarathpet, Avenue road cross","XH9J+C87, Ganigarpet, Nagarathpete, Bengaluru, Karnataka 560002, India",,https://www.youtube.com/@jewelmakinginindia,3,2,OPERATIONAL,12.968537699999999,77.58078499999999,General,B,Monday: Open 24 hours,https://maps.google.com/?cid=3259006248597011254&g_mp=Cidnb29nbGUubWFwcy5wbGFjZXMudjEuUGxhY2VzLlNlYXJjaFRleHQQAhgEIAA,pending,Google Maps API
Chickpet Market,"XHCG+9G8, Huriopet, Chickpet, Bengaluru, Karnataka 560053, India",,,4.2,342,OPERATIONAL,12.9709232,77.5763139,General,B,,https://maps.google.com/?cid=4962979069484615120&g_mp=Cidnb29nbGUubWFwcy5wbGFjZXMudjEuUGxhY2VzLlNlYXJjaFRleHQQAhgEIAA,pending,Google Maps API
Chickpet Plaza,"197, E.S Ln, Ragipet, Huriopet, Chickpet, Bengaluru, Karnataka 560053, India",,https://chickpetmarket.org/,4,223,OPERATIONAL,12.9690506,77.57698680000001,General,B,Monday: 10:00 AM – 9:00 PM,https://maps.google.com/?cid=6782923430796659097&g_mp=Cidnb29nbGUubWFwcy5wbGFjZXMudjEuUGxhY2VzLlNlYXJjaFRleHQQAhgEIAA,pending,Google Maps API
Chickpet Sarees Shop,"M P, 1-132, Gurkar Ramanayak Ln, Huriopet, Chickpet, Bengaluru, Karnataka 560053, India",,,3.9,986,OPERATIONAL,12.969164699999999,77.5780127,General,B,,https://maps.google.com/?cid=18299743586549103250&g_mp=Cidnb29nbGUubWFwcy5wbGFjZXMudjEuUGxhY2VzLlNlYXJjaFRleHQQAhgEIAA,pending,Google Maps API
Chickpet shop,"42, Poorna Venkata Rao Rd, Jolly Mohalla, Ranasinghpete, Sultanpete, Bengaluru, Karnataka 560053, India",,,3.9,14,OPERATIONAL,12.965859300000002,77.57267770000001,General,B,Monday: 6:00 AM – 7:00 PM,https://maps.google.com/?cid=12959696566361098182&g_mp=Cidnb29nbGUubWFwcy5wbGFjZXMudjEuUGxhY2VzLlNlYXJjaFRleHQQAhgEIAA,pending,Google Maps API
Chickpet street shopping,"Chickpet Rd, Huriopet, Chickpet, Bengaluru, Karnataka 560053, India",099347 52123,https://chickpetmarket.org/,4.1,5697,OPERATIONAL,12.970329099999999,77.5781461,General,B,Monday: 9:00 AM – 9:00 PM,https://maps.google.com/?cid=2011631600015405256&g_mp=Cidnb29nbGUubWFwcy5wbGFjZXMudjEuUGxhY2VzLlNlYXJjaFRleHQQAhgEIAA,pending,Google Maps API
Classic Traders,"31/32, MR Ln, Manavarthipet, Manivartapete, Sultanpete, Bengaluru, Karnataka 560053, India",080 2237 2975,,4.5,11,OPERATIONAL,12.9681352,77.5724992,General,B,Monday: 9:00 AM – 9:00 PM,https://maps.google.com/?cid=9747650631417264401&g_mp=Cidnb29nbGUubWFwcy5wbGFjZXMudjEuUGxhY2VzLlNlYXJjaFRleHQQAhgEIAA,pending,Google Maps API
Dhondusas,"SHOP NO.1, MARUTI PLAZA, 594, Chickpet Rd, Basettypet, Huriopet, Chickpet, Bengaluru, Karnataka 560053, India",099641 64163,,4.3,424,OPERATIONAL,12.9704302,77.5747601,General,B,Monday: 10:00 AM – 8:45 PM,https://maps.google.com/?cid=10643878217092738541&g_mp=Cidnb29nbGUubWFwcy5wbGFjZXMudjEuUGxhY2VzLlNlYXJjaFRleHQQAhgEIAA,pending,Google Maps API
Diwan Traders,"312, Old Tharagupete Rd, Ragipet, Old Tharagupet, Mamulpet, Chickpet, Bengaluru, Karnataka 560053, India",098456 85495,,4.3,35,OPERATIONAL,12.9672769,77.5767262,General,B,Monday: 11:00 AM – 9:30 PM,https://maps.google.com/?cid=3547349471529035563&g_mp=Cidnb29nbGUubWFwcy5wbGFjZXMudjEuUGxhY2VzLlNlYXJjaFRleHQQAhgEIAA,pending,Google Maps API
Heeraji Collection - The Men’s Fashion Store,"69, G.R.Market, behind Lal Building, O.T.Pet, Old Tharagupet, Mamulpet, Chickpet, Bengaluru, Karnataka 560053, India",080 4140 4812,https://getheeraji.com/,4.5,2386,OPERATIONAL,12.9682104,77.5751212,General,B,Monday: 10:30 AM – 8:30 PM,https://maps.google.com/?cid=6321675482078816596&g_mp=Cidnb29nbGUubWFwcy5wbGFjZXMudjEuUGxhY2VzLlNlYXJjaFRleHQQAhgEIAA,pending,Google Maps API
Indira Market,"XH8J+J8X, Nagarathpet Main Rd, Gollarpet, Kumbarpet, Dodpete, Nagarathpete, Bengaluru, Karnataka 560002, India",,,4,358,OPERATIONAL,12.9666125,77.5808594,General,B,Monday: 9:00 AM – 8:30 PM,https://maps.google.com/?cid=16691895287215164355&g_mp=Cidnb29nbGUubWFwcy5wbGFjZXMudjEuUGxhY2VzLlNlYXJjaFRleHQQAhgEIAA,pending,Google Maps API
Jyoti HandiCraft LLP।Brass। copper।bronze।puja Items। antique idols gift wholesaler,"Jyoti Mansion, 24, Mari Muniyappa Lane, opposite Ram Medicals, Gollarpet, Kumbarpet, Golarpet, Nagarathpete, Bengaluru, Karnataka 560002, India",096634 01139,https://jyotihandicrafts.co.in/,4.5,365,OPERATIONAL,12.9661171,77.5811485,General,B,Monday: 9:00 AM – 8:00 PM,https://maps.google.com/?cid=12960537048522219405&g_mp=Cidnb29nbGUubWFwcy5wbGFjZXMudjEuUGxhY2VzLlNlYXJjaFRleHQQAhgEIAA,pending,Google Maps API
K. Ebrahim Baig & Co - Pansari Store,"399, Avenue Rd, Ragipet, KR Market, Mamulpet, Chickpet, Bengaluru, Karnataka 560002, India",097406 82228,,4.5,29,OPERATIONAL,12.9652309,77.57726799999999,General,B,Monday: 10:30 AM – 9:00 PM,https://maps.google.com/?cid=16962370877262672005&g_mp=Cidnb29nbGUubWFwcy5wbGFjZXMudjEuUGxhY2VzLlNlYXJjaFRleHQQAhgEIAA,pending,Google Maps API
Kalamandir - Chickpet,"202, D. M. Arcade, Chickpet Rd, Ragipet, Mamulpet, Chickpet, Bengaluru, Karnataka 560053, India",091486 16060,https://kalamandir.com/,3.8,867,OPERATIONAL,12.9686167,77.5772101,General,B,Monday: 9:30 AM – 9:00 PM,https://maps.google.com/?cid=13282930130279525397&g_mp=Cidnb29nbGUubWFwcy5wbGFjZXMudjEuUGxhY2VzLlNlYXJjaFRleHQQAhgEIAA,pending,Google Maps API
Karnataka Opticals,"164 17th cross Rangaswamy Temple street Balepet, Balepete, Chickpet, Bengaluru, Karnataka 560053, India",096204 07913,,5,16,OPERATIONAL,12.972771999999999,77.57557899999999,General,B,Monday: 10:30 AM – 8:00 PM,https://maps.google.com/?cid=12209044194817852690&g_mp=Cidnb29nbGUubWFwcy5wbGFjZXMudjEuUGxhY2VzLlNlYXJjaFRleHQQAhgEIAA,pending,Google Maps API
Kirana Trading Company,"No 13, 1st Main Rd, New Tharagupet, Bengaluru, Karnataka 560002, India",080 2670 8882,,4.2,20,OPERATIONAL,12.964103999999999,77.57204349999999,General,B,Monday: 10:00 AM – 9:00 PM,https://maps.google.com/?cid=879537715890791826&g_mp=Cidnb29nbGUubWFwcy5wbGFjZXMudjEuUGxhY2VzLlNlYXJjaFRleHQQAhgEIAA,pending,Google Maps API
Kurta Ghar - Chickpet,"Laxman, 738, Subbarao Lane, inside the Opposite lane of Kala Mandir, Ragipet, Huriopet, Chickpet, Bengaluru, Karnataka 560053, India",099011 34797,,4.7,867,OPERATIONAL,12.968995999999999,77.5773524,General,B,Monday: 11:30 AM – 8:00 PM,https://maps.google.com/?cid=16215551683222721915&g_mp=Cidnb29nbGUubWFwcy5wbGFjZXMudjEuUGxhY2VzLlNlYXJjaFRleHQQAhgEIAA,pending,Google Maps API
Madhu Stores,"Khan's Plaza, 32/1, T Street, near Rajamarket, A Block, Kumbarpet, Ganigarpet, Nagarathpete, Bengaluru, Karnataka 560002, India",080 2210 6281,https://site.dgtechsoln.com/madhu-stores/,4.6,50,OPERATIONAL,12.967138400000001,77.5789554,General,B,Monday: 9:00 AM – 9:00 PM,https://maps.google.com/?cid=3548907541441548835&g_mp=Cidnb29nbGUubWFwcy5wbGFjZXMudjEuUGxhY2VzLlNlYXJjaFRleHQQAhgEIAA,pending,Google Maps API
Mahajan Provision Stores,"16/1, 3rd Main Rd, New Tharagupet, Bengaluru, Karnataka 560002, India",080 4203 5304,,4.2,89,OPERATIONAL,12.9623669,77.571107,General,B,Monday: 9:00 AM – 7:30 PM,https://maps.google.com/?cid=14010184830827587570&g_mp=Cidnb29nbGUubWFwcy5wbGFjZXMudjEuUGxhY2VzLlNlYXJjaFRleHQQAhgEIAA,pending,Google Maps API
Mahanta - Chickpet Main Road,"B1, Basement floor, Chickpet Plaza, Chickpet Rd, opposite to Sudarshan Silk, Ragipet, Huriopet, Chickpet, Bengaluru, Karnataka 560053, India",097400 78106,https://mahantaethnic.com/,4.8,418,OPERATIONAL,12.9690294,77.57699000000001,General,B,Monday: 10:00 AM – 8:30 PM,https://maps.google.com/?cid=17687548731498087596&g_mp=Cidnb29nbGUubWFwcy5wbGFjZXMudjEuUGxhY2VzLlNlYXJjaFRleHQQAhgEIAA,pending,Google Maps API
Mahanta - Chickpet Sharma Complex,"shop no 5, 2nd floor, sharma complex, Chickpet Rd, next to Byrappa Silks, Ragipet, Mamulpet, Chickpet, Bengaluru, Karnataka 560053, India",093534 31533,https://mahantaethnic.com/,4.5,166,OPERATIONAL,12.968511399999999,77.5775151,General,B,Monday: 10:30 AM – 8:30 PM,https://maps.google.com/?cid=1519966956528854704&g_mp=Cidnb29nbGUubWFwcy5wbGFjZXMudjEuUGxhY2VzLlNlYXJjaFRleHQQAhgEIAA,pending,Google Maps API
Neelkanth junction # 2 G Block Sri Balaji Complex Sultanpet Bangalore,"old no. 38, Sapthagiri Complex Basement, 100, AS Char St, Mamulpet, Chickpet, Bengaluru, Karnataka 560053, India",080506 23041,,5,1,OPERATIONAL,12.968589099999999,77.575118,General,B,Monday: 8:30 AM – 9:00 PM,https://maps.google.com/?cid=13763833476690951079&g_mp=Cidnb29nbGUubWFwcy5wbGFjZXMudjEuUGxhY2VzLlNlYXJjaFRleHQQAhgEIAA,pending,Google Maps API
PARICHAY FOR COMPLETE MAN,"701, Chickpet Rd, opp. to Kuberan Silks, Ragipet, Anchepet, Chickpet, Bengaluru, Karnataka 560053, India",082172 41632,,4.8,1042,OPERATIONAL,12.969252599999999,77.5766555,General,B,Monday: 10:00 AM – 8:00 PM,https://maps.google.com/?cid=10680167563612126326&g_mp=Cidnb29nbGUubWFwcy5wbGFjZXMudjEuUGxhY2VzLlNlYXJjaFRleHQQAhgEIAA,pending,Google Maps API
PAYAL CASH AND CARRY Shirts,"Gate no 5, Shop no. B4/B5, Sri Balaji Complex, Ground floor, Sultanpet, B, Block No.125, E Block, Manivartapete, Sultanpete, Bengaluru, Karnataka 560053, India",099643 03232,,4.8,33,OPERATIONAL,12.969048599999999,77.573263,General,B,Monday: 8:30 AM – 9:00 PM,https://maps.google.com/?cid=6144938916170764711&g_mp=Cidnb29nbGUubWFwcy5wbGFjZXMudjEuUGxhY2VzLlNlYXJjaFRleHQQAhgEIAA,pending,Google Maps API
Paras Bags – Best Wholesale Bag Store in Balepet,"07,2nd cross, JM Ln, near aai matha Temple, Balepete, Chickpet, Bengaluru, Karnataka 560053, India",089706 89289,https://paras-bags-best.grexa.site/,4.9,114,OPERATIONAL,12.972138399999999,77.5738549,General,B,Monday: 8:00 AM – 9:00 PM,https://maps.google.com/?cid=5821820689210795827&g_mp=Cidnb29nbGUubWFwcy5wbGFjZXMudjEuUGxhY2VzLlNlYXJjaFRleHQQAhgEIAA,pending,Google Maps API
Pooja's The Footwear Shop,"# 15/1, Panchalla Ankanna Lane Manavarthipet, Manivartapete, Sultanpete, Bengaluru, Karnataka 560053, India",099860 18828,,4.8,126,OPERATIONAL,12.967640399999999,77.5726174,General,B,Monday: 10:00 AM – 7:00 PM,https://maps.google.com/?cid=15740448642105167896&g_mp=Cidnb29nbGUubWFwcy5wbGFjZXMudjEuUGxhY2VzLlNlYXJjaFRleHQQAhgEIAA,pending,Google Maps API
Prathap Stores,"Shop No.20, Vishwa Gandhi Complex, Gundopanth St, Ragipet, Old Tharagupet, Mamulpet, Chickpet, Bengaluru, Karnataka 560053, India",093426 75686,,4.4,277,OPERATIONAL,12.966857000000001,77.57652019999999,General,B,Monday: 9:00 AM – 8:00 PM,https://maps.google.com/?cid=1722158589637227587&g_mp=Cidnb29nbGUubWFwcy5wbGFjZXMudjEuUGxhY2VzLlNlYXJjaFRleHQQAhgEIAA,pending,Google Maps API
Puckraj and sons,"Avenue Rd, opp. to saptagiri galore, Ragipet, KR Market, Dodpete, Chickpet, Bengaluru, Karnataka 560002, India",094487 71841,,4,17468,OPERATIONAL,12.9669098,77.5781714,General,B,Monday: 10:30 AM – 8:00 PM,https://maps.google.com/?cid=8349975160244630287&g_mp=Cidnb29nbGUubWFwcy5wbGFjZXMudjEuUGxhY2VzLlNlYXJjaFRleHQQAhgEIAA,pending,Google Maps API
R & R Boutique,"Shop no 1 first floor, Chickpet Plaza, Chickpet, Bangalore, Ragipet, Huriopet, Chickpet, Bengaluru, Karnataka 560053, India",099646 51504,https://www.instagram.com/_randr_boutique_?igsh=MTVtc3phZDI4am55Mg==,4.7,809,OPERATIONAL,12.969071699999999,77.57694579999999,General,B,Monday: 11:00 AM – 9:00 PM,https://maps.google.com/?cid=12616618704583593500&g_mp=Cidnb29nbGUubWFwcy5wbGFjZXMudjEuUGxhY2VzLlNlYXJjaFRleHQQAhgEIAA,pending,Google Maps API
Raja Market,"162, Avenue Rd, Kumbarpet, Dodpete, Nagarathpete, Bengaluru, Karnataka 560002, India",,,4.1,7135,OPERATIONAL,12.9677536,77.57863019999999,General,B,Monday: 10:00 AM – 8:30 PM,https://maps.google.com/?cid=1021286752845350523&g_mp=Cidnb29nbGUubWFwcy5wbGFjZXMudjEuUGxhY2VzLlNlYXJjaFRleHQQAhgEIAA,pending,Google Maps API
Ram Medical Stores,"XH8J+HJG, 39, Nagarathpet Main Rd, Medarpet, Kumbarpet, Halsurpete, Nagarathpete, Bengaluru, Karnataka 560002, India",080 2221 1666,,4.3,301,OPERATIONAL,12.966513899999999,77.5814551,General,B,Monday: 9:30 AM – 11:00 PM,https://maps.google.com/?cid=15330043959441885703&g_mp=Cidnb29nbGUubWFwcy5wbGFjZXMudjEuUGxhY2VzLlNlYXJjaFRleHQQAhgEIAA,pending,Google Maps API
Roopa Balaji supplys,"20/2, 3rd Main Rd, New Tharagupet, Bengaluru, Karnataka 560002, India",090369 66442,,4.6,22,OPERATIONAL,12.961929399999999,77.5712096,General,B,Monday: 10:30 AM – 7:00 PM,https://maps.google.com/?cid=16364422615993474210&g_mp=Cidnb29nbGUubWFwcy5wbGFjZXMudjEuUGxhY2VzLlNlYXJjaFRleHQQAhgEIAA,pending,Google Maps API
Rukmini Hall,"711-712, Chickpet Rd, near Vijay Vihar Hotel, Ragipet, Huriopet, Chickpet, Bengaluru, Karnataka 560053, India",080 2225 5425,,4.3,101,OPERATIONAL,12.969087400000001,77.5769677,General,B,Monday: 10:30 AM – 7:30 PM,https://maps.google.com/?cid=2206213150724435685&g_mp=Cidnb29nbGUubWFwcy5wbGFjZXMudjEuUGxhY2VzLlNlYXJjaFRleHQQAhgEIAA,pending,Google Maps API
Sakalajee Market,"XH9H+7HF, Avenue Rd, Kumbarpet, Ganigarpet, Nagarathpete, Bengaluru, Karnataka 560002, India",,,4,102,OPERATIONAL,12.968180199999999,77.57891269999999,General,B,Monday: 11:00 AM – 9:00 PM,https://maps.google.com/?cid=12474724922285774698&g_mp=Cidnb29nbGUubWFwcy5wbGFjZXMudjEuUGxhY2VzLlNlYXJjaFRleHQQAhgEIAA,pending,Google Maps API
Shopping Street,"Shopping St, Kumara Park West, Seshadripuram, Bengaluru, Karnataka 560020, India",,,,,OPERATIONAL,12.9943222,77.5801672,General,B,,https://maps.google.com/?cid=7809326679713013532&g_mp=Cidnb29nbGUubWFwcy5wbGFjZXMudjEuUGxhY2VzLlNlYXJjaFRleHQQAhgEIAA,pending,Google Maps API
Shree Trading,"No.300/7, Savand Market, Ground Floor, Avenue Road Cross, Belli Basavangudi St, near DPG Complex, Ragipet, Old Tharagupet, Mamulpet, Chickpet, Bengaluru, Karnataka 560053, India",080 4122 4925,https://nfc.dgtechsoln.com/shree-trading/,4.5,4,OPERATIONAL,12.9671991,77.5776594,General,B,Monday: 10:00 AM – 9:00 PM,https://maps.google.com/?cid=18420799759344376488&g_mp=Cidnb29nbGUubWFwcy5wbGFjZXMudjEuUGxhY2VzLlNlYXJjaFRleHQQAhgEIAA,pending,Google Maps API
Shubha Enterprises,"6/3, Balepet, Balepete, Chickpet, Bengaluru, Karnataka 560053, India",080 2220 1651,http://www.shubhasewing.com/,4.4,153,OPERATIONAL,12.9739889,77.5749653,General,B,Monday: 10:30 AM – 8:30 PM,https://maps.google.com/?cid=1906043038953972236&g_mp=Cidnb29nbGUubWFwcy5wbGFjZXMudjEuUGxhY2VzLlNlYXJjaFRleHQQAhgEIAA,pending,Google Maps API
Sri Mahalakshmi Commercials,"72/2, 2nd Main Rd, New Tharagupet, Bengaluru, Karnataka 560002, India",,,4.6,18,OPERATIONAL,12.963212299999999,77.5716985,General,B,Monday: 10:30 AM – 8:00 PM,https://maps.google.com/?cid=891087960137449563&g_mp=Cidnb29nbGUubWFwcy5wbGFjZXMudjEuUGxhY2VzLlNlYXJjaFRleHQQAhgEIAA,pending,Google Maps API
Sri RamaVilas Sweets (Gundappa Hotel),"14,Shri Dharmaraya swami temple main road, Old Taluk Cutchery Rd, Thigalarpet, Ganigarpet, Nagarathpete, Bengaluru, Karnataka 560002, India",080 2222 2055,,4.4,1047,OPERATIONAL,12.965328399999999,77.5839766,General,B,Monday: 12:00 – 8:00 PM,https://maps.google.com/?cid=574453056304887671&g_mp=Cidnb29nbGUubWFwcy5wbGFjZXMudjEuUGxhY2VzLlNlYXJjaFRleHQQAhgEIAA,pending,Google Maps API
Sri Venkateshwara Silks,"XHFH+83H, BVK Iyengar Rd, Anchepet, Chickpet, Bengaluru, Karnataka 560009, India",080 2226 9016,,4,448,OPERATIONAL,12.973322500000002,77.57772179999999,General,B,Monday: 10:00 AM – 9:00 PM,https://maps.google.com/?cid=130885242301005661&g_mp=Cidnb29nbGUubWFwcy5wbGFjZXMudjEuUGxhY2VzLlNlYXJjaFRleHQQAhgEIAA,pending,Google Maps API
Sri Venkateshwara Sweetmeat Stall (original),"181, Balepete Main Rd, near to upparpet Police Station, Balepete, Chickpet, Bengaluru, Karnataka 560053, India",080 4151 1957,,4.3,5410,OPERATIONAL,12.973173099999999,77.5747011,General,B,Monday: 9:00 AM – 8:30 PM,https://maps.google.com/?cid=3184425452794950256&g_mp=Cidnb29nbGUubWFwcy5wbGFjZXMudjEuUGxhY2VzLlNlYXJjaFRleHQQAhgEIAA,pending,Google Maps API
Sri bhagya lakshmi super bazar,"20/1, 2nd Main Rd, behind Sri balaji traders, New Tharagupet, Bengaluru, Karnataka 560002, India",080 2670 2536,,4.3,141,OPERATIONAL,12.961908999999999,77.571511,General,B,Monday: 10:30 AM – 8:30 PM,https://maps.google.com/?cid=2840095414298622357&g_mp=Cidnb29nbGUubWFwcy5wbGFjZXMudjEuUGxhY2VzLlNlYXJjaFRleHQQAhgEIAA,pending,Google Maps API
Subhas Stores - The Book Mall,"first floor, subhas complex, No72, Avenue Rd, above seema creations, Ballapurpet, Nagarathpete, Bengaluru, Karnataka 560002, India",080 2225 6624,,4.1,1920,OPERATIONAL,12.970328799999999,77.5800115,General,B,Monday: 10:30 AM – 6:30 PM,https://maps.google.com/?cid=1489835663225387227&g_mp=Cidnb29nbGUubWFwcy5wbGFjZXMudjEuUGxhY2VzLlNlYXJjaFRleHQQAhgEIAA,pending,Google Maps API
Sujatha Traders,"Shop No:#42, 3rd Main Rd, Ranasinghpete, New Tharagupet, Bengaluru, Karnataka 560002, India",099020 07779,https://www.sujathatraders.com/,4.1,693,OPERATIONAL,12.9641901,77.5711838,General,B,Monday: 11:00 AM – 7:30 PM,https://maps.google.com/?cid=7951867719111854473&g_mp=Cidnb29nbGUubWFwcy5wbGFjZXMudjEuUGxhY2VzLlNlYXJjaFRleHQQAhgEIAA,pending,Google Maps API
Sultan pet circle,"8, Shankara Devara Galli, Manivartapete, Sultanpete, Bengaluru, Karnataka 560053, India",,,4.1,15,OPERATIONAL,12.969282900000001,77.5723788,General,B,Monday: 7:00 AM – 10:00 PM,https://maps.google.com/?cid=4399307817547212712&g_mp=Cidnb29nbGUubWFwcy5wbGFjZXMudjEuUGxhY2VzLlNlYXJjaFRleHQQAhgEIAA,pending,Google Maps API
Sultanpet main road,"199, Sultanpete Main Rd, opp. State Bank of India, Santhusapet, Chickpet, Bengaluru, Karnataka 560053, India",,,4.6,19,OPERATIONAL,12.9691383,77.5734899,General,B,,https://maps.google.com/?cid=2360320744531087702&g_mp=Cidnb29nbGUubWFwcy5wbGFjZXMudjEuUGxhY2VzLlNlYXJjaFRleHQQAhgEIAA,pending,Google Maps API
Sunday Bazar Bengaluru,"209, Sultanpete Main Rd, E Block, Santhusapet, Sultanpete, Bengaluru, Karnataka 560053, India",,,4,3533,OPERATIONAL,12.968838700000001,77.57394459999999,General,B,Monday: Closed,https://maps.google.com/?cid=6230136931422561115&g_mp=Cidnb29nbGUubWFwcy5wbGFjZXMudjEuUGxhY2VzLlNlYXJjaFRleHQQAhgEIAA,pending,Google Maps API
T H BASAVARAJAPPA,"grain bazar, CITY MARKET, X73, City Market, KR Market, Mamulpet, Chickpet, Bengaluru, Karnataka 560002, India",093412 35095,,5,45,OPERATIONAL,12.964953099999999,77.57687659999999,General,B,Monday: 11:00 AM – 8:30 PM,https://maps.google.com/?cid=14329717983902629308&g_mp=Cidnb29nbGUubWFwcy5wbGFjZXMudjEuUGxhY2VzLlNlYXJjaFRleHQQAhgEIAA,pending,Google Maps API
Tushar Impex,"No.24, opposite Venkateshwara Sweets, Balepete, Chickpet, Bengaluru, Karnataka 560053, India",082173 96388,,4.6,1184,OPERATIONAL,12.973262499999999,77.5750437,General,B,Monday: 10:00 AM – 8:00 PM,https://maps.google.com/?cid=18266864667837676631&g_mp=Cidnb29nbGUubWFwcy5wbGFjZXMudjEuUGxhY2VzLlNlYXJjaFRleHQQAhgEIAA,pending,Google Maps API
Udupi Stores,"Ground Floor, 6/19, Gundopanth St, near Sri Krishna Mandir, Ragipet, Old Tharagupet, Mamulpet, Chickpet, Bengaluru, Karnataka 560053, India",099001 47180,,4.3,645,OPERATIONAL,12.966621799999999,77.5766464,General,B,Monday: 11:00 AM – 8:00 PM,https://maps.google.com/?cid=14728257932770242176&g_mp=Cidnb29nbGUubWFwcy5wbGFjZXMudjEuUGxhY2VzLlNlYXJjaFRleHQQAhgEIAA,pending,Google Maps API
"Vardhaman Electronics Since 1984 (S.P Road, Bengaluru)","116, MS Ln, near Nagarathpet Main Road, S.P Road Cross, Dodpete, Nagarathpete, Bengaluru, Karnataka 560002, India",099454 79307,http://www.vardhamanelectronics.com/,4.9,144,OPERATIONAL,12.9652008,77.58294670000001,General,B,Monday: 10:00 AM – 7:00 PM,https://maps.google.com/?cid=11130306607484599779&g_mp=Cidnb29nbGUubWFwcy5wbGFjZXMudjEuUGxhY2VzLlNlYXJjaFRleHQQAhgEIAA,pending,Google Maps API
Whole sale Market,"35, 2, New Tharagupet, Bengaluru, Karnataka 560002, India",,http://ashrafmohaaz.ke/,4.5,12,OPERATIONAL,12.9623192,77.5706979,General,B,Monday: 8:00 AM – 9:00 PM,https://maps.google.com/?cid=17572552958790722802&g_mp=Cidnb29nbGUubWFwcy5wbGFjZXMudjEuUGxhY2VzLlNlYXJjaFRleHQQAhgEIAA,pending,Google Maps API
amyzone,"116, Sultanpete Main Rd, E Block, Manivartapete, Sultanpete, Bengaluru, Karnataka 560053, India",,,4.9,31,OPERATIONAL,12.968893000000001,77.57382419999999,General,B,Monday: 9:30 AM – 7:30 PM,https://maps.google.com/?cid=3924473300207074270&g_mp=Cidnb29nbGUubWFwcy5wbGFjZXMudjEuUGxhY2VzLlNlYXJjaFRleHQQAhgEIAA,pending,Google Maps API
𝐅𝐀𝐍𝐂𝐘 𝐁𝐄𝐋𝐓 & 𝐁𝐀𝐆 𝐂𝐄𝐍𝐓𝐑𝐄,"No,207/1, Srinivasa Old Sukh Sagar Hotel Complex, Sreenivasa Mandir Rd, opp. kotak Mahindra Bank, Balepete, Chickpet, Bengaluru, Karnataka 560053, India",080 2225 5333,https://www.facebook.com/share/25KURiuJsWcZfP8x/,4.7,85,OPERATIONAL,12.9742246,77.57539229999999,General,B,Monday: 10:00 AM – 9:00 PM,https://maps.google.com/?cid=9236208168437748071&g_mp=Cidnb29nbGUubWFwcy5wbGFjZXMudjEuUGxhY2VzLlNlYXJjaFRleHQQAhgEIAA,pending,Google Maps API
Art Papier,"AM Building, Nagraj Fire Works, 160, near Sultanpete Main Road, Sowrashtrapet, Sultanpete, Bengaluru, Karnataka 560053, India",080 4203 2013,,4.1,195,OPERATIONAL,12.9700318,77.5719287,Gift Bags,B,Monday: 10:00 AM – 8:00 PM,https://maps.google.com/?cid=14993273870872474991&g_mp=Cidnb29nbGUubWFwcy5wbGFjZXMudjEuUGxhY2VzLlNlYXJjaFRleHQQAhgEIAA,pending,Google Maps API
Greater India Papers and Plastics,"36, KV Temple Street Cross, CROSS, Sultanpete, Bengaluru, Karnataka 560053, India",099004 46814,https://www.greaterindiabags.com/,4.9,476,OPERATIONAL,12.9703407,77.5734233,Gift Bags,B,Monday: 11:00 AM – 8:00 PM,https://maps.google.com/?cid=17457832924612060637&g_mp=Cidnb29nbGUubWFwcy5wbGFjZXMudjEuUGxhY2VzLlNlYXJjaFRleHQQAhgEIAA,pending,Google Maps API
K K Bhandari,"No. 32, opposite to MH Plaza, Ragipet, Mamulpet, Chickpet, Bengaluru, Karnataka 560053, India",080 4132 4783,http://www.kkbhandari.com/,3.8,344,OPERATIONAL,12.9681497,77.5768475,Gift Bags,B,Monday: 9:30 AM – 8:00 PM,https://maps.google.com/?cid=1931308718099273648&g_mp=Cidnb29nbGUubWFwcy5wbGFjZXMudjEuUGxhY2VzLlNlYXJjaFRleHQQAhgEIAA,pending,Google Maps API
Kalash Gifts,"11, Royal Complex, behind Hotel Raghavendra, Santhusapet, Chickpet, Bengaluru, Karnataka 560053, India",098809 88528,,4.9,420,OPERATIONAL,12.9693158,77.5748874,Gift Bags,B,Monday: 9:00 AM – 9:00 PM,https://maps.google.com/?cid=11162157893654667961&g_mp=Cidnb29nbGUubWFwcy5wbGFjZXMudjEuUGxhY2VzLlNlYXJjaFRleHQQAhgEIAA,pending,Google Maps API
Lovely Decoration,"Shop No: 1&4, 1st Floor, CBS Plaza, 101, Belli Basavangudi St, Mamulpet, Chickpet, Bengaluru, Karnataka 560053, India",085537 82629,https://site.dgtechsoln.com/lovely-decorations/,4.8,896,OPERATIONAL,12.968513000000002,77.5761023,Gift Bags,B,Monday: 9:00 AM – 9:00 PM,https://maps.google.com/?cid=11863742465938384635&g_mp=Cidnb29nbGUubWFwcy5wbGFjZXMudjEuUGxhY2VzLlNlYXJjaFRleHQQAhgEIAA,pending,Google Maps API
Mknx,"Kempanna Ln, Ganigarpet, Nagarathpete, Bengaluru, Karnataka 560002, India",070196 76496,http://www.facebook.com/traysbaskets,4.8,108,OPERATIONAL,12.9688211,77.58054469999999,Gift Bags,B,Monday: 11:00 AM – 8:30 PM,https://maps.google.com/?cid=17414897302806948864&g_mp=Cidnb29nbGUubWFwcy5wbGFjZXMudjEuUGxhY2VzLlNlYXJjaFRleHQQAhgEIAA,pending,Google Maps API
Moksh Card Centre,"139, Sultanpete Main Rd, Manivartapete, Sultanpete, Bengaluru, Karnataka 560053, India",099641 71626,,4.3,63,OPERATIONAL,12.9696427,77.57224099999999,Gift Bags,B,Monday: 10:30 AM – 8:00 PM,https://maps.google.com/?cid=5270051947326284622&g_mp=Cidnb29nbGUubWFwcy5wbGFjZXMudjEuUGxhY2VzLlNlYXJjaFRleHQQAhgEIAA,pending,Google Maps API
POORNIMA NOVELTIES (4 CORNER BAGS) MANUFACTURERS OF ALL KINDS OF BAGS AND CORPORATE GIFTING,"1st floor, Malabar complex, 7/8, Balepete Main Rd, Balepete, Chickpet, Bengaluru, Karnataka 560053, India",,https://www.instagram.com/poornimanovelties_bengaluru?igsh=MXB6N3Awcjh6b21udg==,4.9,83,OPERATIONAL,12.9723575,77.57454779999999,Gift Bags,B,Monday: 9:00 AM – 9:00 PM,https://maps.google.com/?cid=2788541456899838418&g_mp=Cidnb29nbGUubWFwcy5wbGFjZXMudjEuUGxhY2VzLlNlYXJjaFRleHQQAhgEIAA,pending,Google Maps API
"Raadhika gifts, Bengaluru","XHCF+4JV, PS Char Ln, 2nd Cross, Santhusapet, Chickpet, Bengaluru, Karnataka 560053, India",,,4.4,11,OPERATIONAL,12.9703726,77.5740397,Gift Bags,B,Monday: 9:00 AM – 9:00 PM,https://maps.google.com/?cid=10673410501281837942&g_mp=Cidnb29nbGUubWFwcy5wbGFjZXMudjEuUGxhY2VzLlNlYXJjaFRleHQQAhgEIAA,pending,Google Maps API
Rajdeep Paper Products,"Balaji Complex, 125/9/2, Sultanpete Main Rd, E Block, Manivartapete, Sultanpete, Bengaluru, Karnataka 560053, India",080954 07962,,4,47,OPERATIONAL,12.969163300000002,77.5732055,Gift Bags,B,Monday: 10:00 AM – 8:00 PM,https://maps.google.com/?cid=6576337913767918865&g_mp=Cidnb29nbGUubWFwcy5wbGFjZXMudjEuUGxhY2VzLlNlYXJjaFRleHQQAhgEIAA,pending,Google Maps API
Rajmandir Cards & Covers,"136, 4, Sultanpete Main Rd, Manivartapete, Sultanpete, Bengaluru, Karnataka 560053, India",094825 08739,,4.4,12,OPERATIONAL,12.9694963,77.5725652,Gift Bags,B,Monday: 10:00 AM – 9:00 PM,https://maps.google.com/?cid=13804745301012515337&g_mp=Cidnb29nbGUubWFwcy5wbGFjZXMudjEuUGxhY2VzLlNlYXJjaFRleHQQAhgEIAA,pending,Google Maps API
Riya gift Zone,"296, Avenue Rd, Ragipet, KR Market, Dodpete, Nagarathpete, Bengaluru, Karnataka 560002, India",080959 22929,,4.2,28,OPERATIONAL,12.9671104,77.57828769999999,Gift Bags,B,Monday: 10:30 AM – 8:30 PM,https://maps.google.com/?cid=6478922552287352787&g_mp=Cidnb29nbGUubWFwcy5wbGFjZXMudjEuUGxhY2VzLlNlYXJjaFRleHQQAhgEIAA,pending,Google Maps API
Solanki Gift centre,"Girnar Plaza 285, Shop No G1 Ground Floor, Ragipet, Old Tharagupet, Mamulpet, Chickpet, Bengaluru, Karnataka 560053, India",080 4151 2848,,4.9,190,OPERATIONAL,12.967265,77.5769219,Gift Bags,B,Monday: 9:30 AM – 9:30 PM,https://maps.google.com/?cid=16886379084808530437&g_mp=Cidnb29nbGUubWFwcy5wbGFjZXMudjEuUGxhY2VzLlNlYXJjaFRleHQQAhgEIAA,pending,Google Maps API
V.R.GIFTS (Party Decorations),"no 14th, belli basavana temple, 1st Cross Rd, near white temple, Ragipet, Mamulpet, Chickpet, Bengaluru, Karnataka 560053, India",089714 76142,,4.6,56,OPERATIONAL,12.9675008,77.5773828,Gift Bags,B,Monday: 9:00 AM – 9:00 PM,https://maps.google.com/?cid=14571764724115278715&g_mp=Cidnb29nbGUubWFwcy5wbGFjZXMudjEuUGxhY2VzLlNlYXJjaFRleHQQAhgEIAA,pending,Google Maps API
Wedding gift house,"Char Street.40, 3rd floor , K.V, Cross, H Ramaiah Ln, Jolly Mohalla, Ranasinghpete, Sultanpete, Bengaluru, Karnataka 560053, India",063600 19519,,4.3,36,OPERATIONAL,12.9658751,77.57315369999999,Gift Bags,B,Monday: 9:30 AM – 8:00 PM,https://maps.google.com/?cid=17253923498006679635&g_mp=Cidnb29nbGUubWFwcy5wbGFjZXMudjEuUGxhY2VzLlNlYXJjaFRleHQQAhgEIAA,pending,Google Maps API
vardhman packaging,"no 225 shop no 1 A s Char street, circle, Santhusapet, Chickpet, Bengaluru, Karnataka 560053, India",093430 04163,,4.9,838,OPERATIONAL,12.969390100000002,77.5754137,Gift Bags,B,Monday: 10:00 AM – 8:30 PM,https://maps.google.com/?cid=584431009736548786&g_mp=Cidnb29nbGUubWFwcy5wbGFjZXMudjEuUGxhY2VzLlNlYXJjaFRleHQQAhgEIAA,pending,Google Maps API
wholesale cane basket,"13-128, Mamulpet Rd, Ragipet, Kumbarpet, Mamulpet, Chickpet, Bengaluru, Karnataka 560053, India",095352 24571,,4.8,330,OPERATIONAL,12.967631299999999,77.5778763,Gift Bags,B,Monday: 10:00 AM – 8:00 PM,https://maps.google.com/?cid=8691637417799515394&g_mp=Cidnb29nbGUubWFwcy5wbGFjZXMudjEuUGxhY2VzLlNlYXJjaFRleHQQAhgEIAA,pending,Google Maps API
"Agrawal Home Durables (Best Hardware, Sanitaryware & Plumbing #1 in Bangalore Chickpet Market, Kilari Road)","Anchepet, Chickpet, Bengaluru, Karnataka 560053, India",070191 02675,http://homedurables.com/,4.9,312,OPERATIONAL,12.9721914,77.5780225,Hardware,B,Monday: 10:30 AM – 9:00 PM,https://maps.google.com/?cid=17981935836006369569&g_mp=Cidnb29nbGUubWFwcy5wbGFjZXMudjEuUGxhY2VzLlNlYXJjaFRleHQQAhgEIAA,pending,Google Maps API
Akash Hardware & Sanitaryware,"1, 5th Cross, Kilari Rd, Anchepet, Chickpet, Bengaluru, Karnataka 560053, India",098865 95687,,4.8,23,OPERATIONAL,12.972559299999999,77.5782196,Hardware,B,Monday: 9:30 AM – 8:30 PM,https://maps.google.com/?cid=12442960752859568597&g_mp=Cidnb29nbGUubWFwcy5wbGFjZXMudjEuUGxhY2VzLlNlYXJjaFRleHQQAhgEIAA,pending,Google Maps API
Anmol Hardware,"49, Sakaria Niwas Kilrai Road B V K, BVK Iyengar Rd, Anchepet, Chickpet, Bengaluru, Karnataka 560053, India",080 4132 4646,,4.3,31,OPERATIONAL,12.972563099999999,77.5778805,Hardware,B,Monday: 10:30 AM – 8:00 PM,https://maps.google.com/?cid=9039843016033426571&g_mp=Cidnb29nbGUubWFwcy5wbGFjZXMudjEuUGxhY2VzLlNlYXJjaFRleHQQAhgEIAA,pending,Google Maps API
Babji Hardware and Sanitation,"20/1, K M Ln, S.P Road Cross, Kumbarpet, Dodpete, Nagarathpete, Bengaluru, Karnataka 560002, India",099867 47344,,4.8,138,OPERATIONAL,12.9650962,77.5802491,Hardware,B,Monday: 7:00 AM – 7:00 PM,https://maps.google.com/?cid=7398266398608820845&g_mp=Cidnb29nbGUubWFwcy5wbGFjZXMudjEuUGxhY2VzLlNlYXJjaFRleHQQAhgEIAA,pending,Google Maps API
Balaji Hardware - chickpet - BLUM HAFELE EBCO HETTICH wholesalers,"898/1, Chickpet Cross, B/H, Hotel Cross Vijay Vihar, SV Ln, Mamulpet, Chickpet, Bengaluru, Karnataka 560053, India",097311 23661,,4.9,15,OPERATIONAL,12.9691382,77.5761139,Hardware,B,Monday: 10:30 AM – 8:00 PM,https://maps.google.com/?cid=8211234143733301763&g_mp=Cidnb29nbGUubWFwcy5wbGFjZXMudjEuUGxhY2VzLlNlYXJjaFRleHQQAhgEIAA,pending,Google Maps API
Balaji Hardware - ebco Hettich Ozone,"7, Kilari Rd, Anchepet, Chickpet, Bengaluru, Karnataka 560053, India",099006 12446,,4.9,61,OPERATIONAL,12.972902399999999,77.5783015,Hardware,B,Monday: 11:00 AM – 8:00 PM,https://maps.google.com/?cid=16734254951014077165&g_mp=Cidnb29nbGUubWFwcy5wbGFjZXMudjEuUGxhY2VzLlNlYXJjaFRleHQQAhgEIAA,pending,Google Maps API
Ekambaram Sanitary Stores,"15, SJP Road, KR Market, Halsurpete, Nagarathpete, Bengaluru, Karnataka 560002, India",080 4151 0123,https://ekambaramsanitarystores.com/,4.2,288,OPERATIONAL,12.9645403,77.57787970000001,Hardware,B,Monday: 10:00 AM – 7:30 PM,https://maps.google.com/?cid=5096747859316565127&g_mp=Cidnb29nbGUubWFwcy5wbGFjZXMudjEuUGxhY2VzLlNlYXJjaFRleHQQAhgEIAA,pending,Google Maps API
I.G.Hardware and Tools,"ground floor, 110, Lakshmana Rao Rd, Huriopet, Chickpet, Bengaluru, Karnataka 560053, India",095213 00396,,4.8,5,OPERATIONAL,12.9716126,77.5755992,Hardware,B,Monday: 9:30 AM – 9:00 PM,https://maps.google.com/?cid=17818563472511864787&g_mp=Cidnb29nbGUubWFwcy5wbGFjZXMudjEuUGxhY2VzLlNlYXJjaFRleHQQAhgEIAA,pending,Google Maps API
Jay karni Sanitary & Hardware,"4, 3rd Cross St, near C.B Bhandari school, Anchepet, Chickpet, Bengaluru, Karnataka 560053, India",081057 40910,,5,62,OPERATIONAL,12.9726117,77.5788177,Hardware,B,Monday: 9:00 AM – 9:00 PM,https://maps.google.com/?cid=3585402626015166952&g_mp=Cidnb29nbGUubWFwcy5wbGFjZXMudjEuUGxhY2VzLlNlYXJjaFRleHQQAhgEIAA,pending,Google Maps API
KRISHNA HARDWARE & ELECTRICALS,"104, 20th cross,RT, Street cross, Lakshmana Rao Rd, Basettypet, Balepete, Chickpet, Bengaluru, Karnataka 560053, India",095353 20004,,5,2,OPERATIONAL,12.971660799999999,77.5753297,Hardware,B,Monday: 10:00 AM – 9:00 PM,https://maps.google.com/?cid=14996030979257995012&g_mp=Cidnb29nbGUubWFwcy5wbGFjZXMudjEuUGxhY2VzLlNlYXJjaFRleHQQAhgEIAA,pending,Google Maps API
Krish Sanitaryware & Hardware,"Shop No 1,2&3,Ground Floor, Chopra Mansion, 51, Kilari Rd, Anchepet, Chickpet, Bengaluru, Karnataka 560053, India",090358 49436,,3.7,20,OPERATIONAL,12.972607300000002,77.5776671,Hardware,B,Monday: 9:00 AM – 9:00 PM,https://maps.google.com/?cid=4498480607381150562&g_mp=Cidnb29nbGUubWFwcy5wbGFjZXMudjEuUGxhY2VzLlNlYXJjaFRleHQQAhgEIAA,pending,Google Maps API
Laxmi Hardware and Electricals,"No 2, ground floor 4th cross, A.M lane, Chickpet Rd, near Ram mandir, Basettypet, Huriopet, Chickpet, Bengaluru, Karnataka 560053, India",080 4114 4651,,4.5,36,OPERATIONAL,12.9707286,77.57535899999999,Hardware,B,Monday: 10:00 AM – 8:00 PM,https://maps.google.com/?cid=9955817309828285935&g_mp=Cidnb29nbGUubWFwcy5wbGFjZXMudjEuUGxhY2VzLlNlYXJjaFRleHQQAhgEIAA,pending,Google Maps API
Laxmi Metal Products Pvt Ltd,"29, Kilari Rd, Anchepet, Chickpet, Bengaluru, Karnataka 560053, India",080 4125 2150,http://www.laxmimetal.co.in/,4.1,439,OPERATIONAL,12.9721406,77.5790385,Hardware,B,Monday: 10:30 AM – 8:30 PM,https://maps.google.com/?cid=1005841405175046140&g_mp=Cidnb29nbGUubWFwcy5wbGFjZXMudjEuUGxhY2VzLlNlYXJjaFRleHQQAhgEIAA,pending,Google Maps API
MAHARAJA HARDWARE AND ELECTRICALS,"Ground floor, no. 16/2, 1st cross, g k. Street, RT Street Cross, Huriopet, Chickpet, Bengaluru, Karnataka 560053, India",094801 83894,,5,1,OPERATIONAL,12.971777699999999,77.5758942,Hardware,B,Monday: 10:00 AM – 9:00 PM,https://maps.google.com/?cid=17103389276766777813&g_mp=Cidnb29nbGUubWFwcy5wbGFjZXMudjEuUGxhY2VzLlNlYXJjaFRleHQQAhgEIAA,pending,Google Maps API
Mahadev hardware & sanitaryware,"149, 3rd Cross Road, Kilari Rd, Anchepet, Chickpet, Bengaluru, Karnataka 560053, India",090195 59843,,4.9,48,OPERATIONAL,12.9723051,77.57869149999999,Hardware,B,Monday: 9:30 AM – 9:00 PM,https://maps.google.com/?cid=11691986393900323687&g_mp=Cidnb29nbGUubWFwcy5wbGFjZXMudjEuUGxhY2VzLlNlYXJjaFRleHQQAhgEIAA,pending,Google Maps API
Mahalaxmi Hardware,"Building Number 134, Kilari Rd, Anchepet, Chickpet, Bengaluru, Karnataka 560053, India",080 4120 9201,,4.7,35,OPERATIONAL,12.972522399999999,77.5780207,Hardware,B,Monday: 10:00 AM – 9:00 PM,https://maps.google.com/?cid=13684922441826162558&g_mp=Cidnb29nbGUubWFwcy5wbGFjZXMudjEuUGxhY2VzLlNlYXJjaFRleHQQAhgEIAA,pending,Google Maps API
Mahaveer Sanitary,"Shop no 1/2, Ground floor, 3rd Cross, Kilari Rd, Anchepet, Chickpet, Bengaluru, Karnataka 560053, India",099643 16103,,4.6,42,OPERATIONAL,12.9724507,77.57881789999999,Hardware,B,Monday: 10:30 AM – 8:30 PM,https://maps.google.com/?cid=9552756582442298931&g_mp=Cidnb29nbGUubWFwcy5wbGFjZXMudjEuUGxhY2VzLlNlYXJjaFRleHQQAhgEIAA,pending,Google Maps API
Mahima hardware and sanitary,"37, Hospital Rd, near K G, Anchepet, Chickpet, Bengaluru, Karnataka 560053, India",,,4.7,29,OPERATIONAL,12.972833699999999,77.5783459,Hardware,B,Monday: 9:00 AM – 8:00 PM,https://maps.google.com/?cid=15400439458602282565&g_mp=Cidnb29nbGUubWFwcy5wbGFjZXMudjEuUGxhY2VzLlNlYXJjaFRleHQQAhgEIAA,pending,Google Maps API
Metro Hardware (since 1963),"22, Godown St, Ragipet, KR Market, Dodpete, Nagarathpete, Bengaluru, Karnataka 560002, India",094484 50180,https://metrohardwares.com/,4.5,342,OPERATIONAL,12.965376899999999,77.57786399999999,Hardware,B,Monday: 10:00 AM – 8:30 PM,https://maps.google.com/?cid=5904482835072078736&g_mp=Cidnb29nbGUubWFwcy5wbGFjZXMudjEuUGxhY2VzLlNlYXJjaFRleHQQAhgEIAA,pending,Google Maps API
Mumtaz Sanitary Stores,"No.20, 3, M Rama Rao Rd, S.J.P Road Cross, KR Market, Dodpete, Nagarathpete, Bengaluru, Karnataka 560002, India",089515 03950,,4.8,106,OPERATIONAL,12.9644167,77.57909169999999,Hardware,B,Monday: 10:30 AM – 8:30 PM,https://maps.google.com/?cid=12897719228491870704&g_mp=Cidnb29nbGUubWFwcy5wbGFjZXMudjEuUGxhY2VzLlNlYXJjaFRleHQQAhgEIAA,pending,Google Maps API
Mysore Hardware,"157, Kilari Rd, Anchepet, Chickpet, Bengaluru, Karnataka 560053, India",078470 28797,,4.9,105,OPERATIONAL,12.972255599999999,77.5791186,Hardware,B,Monday: 10:45 AM – 8:30 PM,https://maps.google.com/?cid=9090561130908187716&g_mp=Cidnb29nbGUubWFwcy5wbGFjZXMudjEuUGxhY2VzLlNlYXJjaFRleHQQAhgEIAA,pending,Google Maps API
Navkar Hardware - WHOLESALE DEALER OF HARDWARE GOODS,"1, 18th Cross Rd, opp. to digambar Jain temple, Balepete, Chickpet, Bengaluru, Karnataka 560053, India",099648 69291,http://www.sevencolour.in/,4.9,284,OPERATIONAL,12.9730551,77.5753691,Hardware,B,Monday: 10:30 AM – 7:30 PM,https://maps.google.com/?cid=5951420924799784375&g_mp=Cidnb29nbGUubWFwcy5wbGFjZXMudjEuUGxhY2VzLlNlYXJjaFRleHQQAhgEIAA,pending,Google Maps API
Param Mitar Hardware and sanitary,"13/3 , 24th cross, Kilari Rd, near udaya school, Anchepet, Chickpet, Bengaluru, Karnataka 560053, India",063007 47403,,5,28,OPERATIONAL,12.971872699999999,77.57788409999999,Hardware,B,Monday: 9:00 AM – 9:00 PM,https://maps.google.com/?cid=3360945329839275038&g_mp=Cidnb29nbGUubWFwcy5wbGFjZXMudjEuUGxhY2VzLlNlYXJjaFRleHQQAhgEIAA,pending,Google Maps API
Pawan Sanitary & Hardware,"164, Kumbarpet Main Road, Near-Masjid, S P Road, Ragipet, Kumbarpet, Dodpete, Nagarathpete, Bengaluru, Karnataka 560002, India",080 4132 7266,,4.1,42,OPERATIONAL,12.965833,77.580017,Hardware,B,Monday: 10:00 AM – 9:00 PM,https://maps.google.com/?cid=1884134204361361423&g_mp=Cidnb29nbGUubWFwcy5wbGFjZXMudjEuUGxhY2VzLlNlYXJjaFRleHQQAhgEIAA,pending,Google Maps API
Rajguru Hardware & Sanitaryware,"17,Killari Road, Avenue Rd, cross, Chickpet, Bengaluru, Karnataka 560053, India",097846 38772,,5,127,OPERATIONAL,12.971974,77.57969539999999,Hardware,B,Monday: 9:30 AM – 9:00 PM,https://maps.google.com/?cid=2995034344179915576&g_mp=Cidnb29nbGUubWFwcy5wbGFjZXMudjEuUGxhY2VzLlNlYXJjaFRleHQQAhgEIAA,pending,Google Maps API
Ronit Hardware,"50/1, Kilari Rd, Anchepet, Chickpet, Bengaluru, Karnataka 560053, India",098443 42434,,4.6,40,OPERATIONAL,12.9726126,77.5777777,Hardware,B,Monday: 10:00 AM – 8:00 PM,https://maps.google.com/?cid=7739520924574503175&g_mp=Cidnb29nbGUubWFwcy5wbGFjZXMudjEuUGxhY2VzLlNlYXJjaFRleHQQAhgEIAA,pending,Google Maps API
Sagar Hardware & Sanitary,"128, Kilari Rd, Anchepet, Chickpet, Bengaluru, Karnataka 560053, India",080 4114 0851,,4.1,8,OPERATIONAL,12.972706,77.577607,Hardware,B,Monday: 11:00 AM – 8:30 PM,https://maps.google.com/?cid=457905994126098769&g_mp=Cidnb29nbGUubWFwcy5wbGFjZXMudjEuUGxhY2VzLlNlYXJjaFRleHQQAhgEIAA,pending,Google Maps API
Shiv Hardware,"1,6th cross, Kilari Rd, Anchepet, Chickpet, Bengaluru, Karnataka 560053, India",095915 05273,,4.2,5,OPERATIONAL,12.9727109,77.57789559999999,Hardware,B,Monday: 10:00 AM – 8:30 PM,https://maps.google.com/?cid=12763544528565880533&g_mp=Cidnb29nbGUubWFwcy5wbGFjZXMudjEuUGxhY2VzLlNlYXJjaFRleHQQAhgEIAA,pending,Google Maps API
Shri Shankeshwar Hardware,"No.34,Opp.C.B.Bhandari College, Kilari Rd, Anchepet, Chickpet, Bengaluru, Karnataka 560053, India",098452 41621,,4.9,226,OPERATIONAL,12.9721301,77.5788934,Hardware,B,Monday: 10:30 AM – 8:30 PM,https://maps.google.com/?cid=16813927366870251512&g_mp=Cidnb29nbGUubWFwcy5wbGFjZXMudjEuUGxhY2VzLlNlYXJjaFRleHQQAhgEIAA,pending,Google Maps API
Sri Balaji Traders - Wholesale Dealers in Hardware Items,"Limra complex, L#2/3, DR Lane, S.J.P Road Cross, KR Market, Dodpete, Nagarathpete, Bengaluru, Karnataka 560002, India",080 4162 2178,https://nfc.dgtechsoln.com/sri-balaji-traders/,4.5,59,OPERATIONAL,12.964916899999999,77.5786937,Hardware,B,Monday: 10:00 AM – 8:00 PM,https://maps.google.com/?cid=4928867338376271349&g_mp=Cidnb29nbGUubWFwcy5wbGFjZXMudjEuUGxhY2VzLlNlYXJjaFRleHQQAhgEIAA,pending,Google Maps API
Sri Master Hardwares,"Kilari Rd, Anchepet, Chickpet, Bengaluru, Karnataka 560053, India",063632 81892,https://instagram.com/srimaster.2011?utm_medium=copy_link,4.7,38,OPERATIONAL,12.9727307,77.5775093,Hardware,B,Monday: 11:00 AM – 8:00 PM,https://maps.google.com/?cid=10107387984670047553&g_mp=Cidnb29nbGUubWFwcy5wbGFjZXMudjEuUGxhY2VzLlNlYXJjaFRleHQQAhgEIAA,pending,Google Maps API
Sri Nakoda hardwares,"68/1, Kilari Rd, opp. santoshi mata temple, Balepete, Chickpet, Bengaluru, Karnataka 560053, India",080 4153 0215,,4.8,18,OPERATIONAL,12.973141,77.576252,Hardware,B,Monday: 10:00 AM – 8:00 PM,https://maps.google.com/?cid=6714166783306552542&g_mp=Cidnb29nbGUubWFwcy5wbGFjZXMudjEuUGxhY2VzLlNlYXJjaFRleHQQAhgEIAA,pending,Google Maps API
Sri Ramji Plumbing Materials,"48, M Rama Rao Rdy, 48, M Rama Rao Rd, Ragipet, KR Market, Dodpete, Nagarathpete, Bengaluru, Karnataka 560002, India",078139 90001,,4.5,13,OPERATIONAL,12.9647463,77.5786305,Hardware,B,Monday: 10:00 AM – 7:00 PM,https://maps.google.com/?cid=3288808957512754041&g_mp=Cidnb29nbGUubWFwcy5wbGFjZXMudjEuUGxhY2VzLlNlYXJjaFRleHQQAhgEIAA,pending,Google Maps API
"UNIVERSAL TRADING CO.,","101 Silver Jubli Road cross, MICON waire, KR Market, Dodpete, Nagarathpete, Bengaluru, Karnataka 560002, India",099807 91664,https://www.indiamart.com/universal-trading-co-bengaluru/,4.9,53,OPERATIONAL,12.964425499999999,77.57778789999999,Hardware,B,Monday: 11:00 AM – 8:00 PM,https://maps.google.com/?cid=14254394709259863652&g_mp=Cidnb29nbGUubWFwcy5wbGFjZXMudjEuUGxhY2VzLlNlYXJjaFRleHQQAhgEIAA,pending,Google Maps API
Vaibhaav Hardware Pvt Ltd.,"29, 24th Cross, Kilari Rd, opposite C B Bhandari College, Anchepet, Chickpet, Bengaluru, Karnataka 560053, India",080 4114 3839,,4.1,43,OPERATIONAL,12.9722317,77.5780376,Hardware,B,Monday: 11:00 AM – 8:30 PM,https://maps.google.com/?cid=11125491750386779436&g_mp=Cidnb29nbGUubWFwcy5wbGFjZXMudjEuUGxhY2VzLlNlYXJjaFRleHQQAhgEIAA,pending,Google Maps API
Vanitha Sanitaryware & Hardware,"2, 6th Cross Rd, Anchepet, Kilari Rd, Bengaluru, Karnataka 560053, India",096628 80844,,4.9,1180,OPERATIONAL,12.972674,77.5779474,Hardware,B,Monday: 10:00 AM – 9:00 PM,https://maps.google.com/?cid=9564184494545022456&g_mp=Cidnb29nbGUubWFwcy5wbGFjZXMudjEuUGxhY2VzLlNlYXJjaFRleHQQAhgEIAA,pending,Google Maps API
Vinayaka Hardwares,"Shop No.119, 2nd Cross (Near JK Foot Wear Jangama Maistry Lane, Balepete, Chickpet, Bengaluru, Karnataka 560053, India",098860 50710,,4.4,8,OPERATIONAL,12.971832599999999,77.5739784,Hardware,B,Monday: 9:00 AM – 8:00 PM,https://maps.google.com/?cid=5564537973711833839&g_mp=Cidnb29nbGUubWFwcy5wbGFjZXMudjEuUGxhY2VzLlNlYXJjaFRleHQQAhgEIAA,pending,Google Maps API
GOLDEN HEERA-wholesale artificial imitation jewellery shop in bangalore,"212,1st floor, safena plaza, Kumbarpet Main Rd, opp. to FMC Complex, Ragipet, KR Market, Dodpete, Nagarathpete, Bengaluru, Karnataka 560002, India",098444 42225,http://www.goldenheera.com/,4.8,12,OPERATIONAL,12.966459799999999,77.5785252,Imitation Jewellery,B,Monday: 9:00 AM – 8:30 PM,https://maps.google.com/?cid=5178444418289270783&g_mp=Cidnb29nbGUubWFwcy5wbGFjZXMudjEuUGxhY2VzLlNlYXJjaFRleHQQAhgEIAA,pending,Google Maps API
Kheteshwara Fancy Stores ( Branch),"217, 2nd floor, FMC Complex, Kumbarpet Main Rd, Ragipet, KR Market, Dodpete, Nagarathpete, Bengaluru, Karnataka 560002, India",085531 68450,,4.9,345,OPERATIONAL,12.966560999999999,77.578538,Imitation Jewellery,B,Monday: 9:00 AM – 9:00 PM,https://maps.google.com/?cid=7143503829774317483&g_mp=Cidnb29nbGUubWFwcy5wbGFjZXMudjEuUGxhY2VzLlNlYXJjaFRleHQQAhgEIAA,pending,Google Maps API
M B Jewellers,"#2/2, Bhagirathi Building, P.s.lane, 1st Cross, XH9G+P3H, A S Char Street, AS Char St, Santhusapet, Chickpet, Bengaluru, Karnataka 560053, India",,https://younicornportfolios.com/M-B-Jewellers,4.3,113,OPERATIONAL,12.969370999999999,77.575238,Imitation Jewellery,B,Monday: 9:30 AM – 9:30 PM,https://maps.google.com/?cid=3116550229348852915&g_mp=Cidnb29nbGUubWFwcy5wbGFjZXMudjEuUGxhY2VzLlNlYXJjaFRleHQQAhgEIAA,pending,Google Maps API
Mataji Fancy store,"68/1, srinivasa temple road, Akkipete Main Rd, Balepete, Chickpet, Bengaluru, Karnataka 560053, India",096322 48502,https://www.instagram.com/mataji_bangales_25?igsh=MW9oMDJrcXBlZHM0Mg==,4.4,249,OPERATIONAL,12.9721393,77.5744698,Imitation Jewellery,B,Monday: 9:00 AM – 9:00 PM,https://maps.google.com/?cid=6783067247369206210&g_mp=Cidnb29nbGUubWFwcy5wbGFjZXMudjEuUGxhY2VzLlNlYXJjaFRleHQQAhgEIAA,pending,Google Maps API
Mayur Novelty - wholesale immitation jewellery/Anti tarnish jewellery wholesale,"A B M Market, 92/1, near Lal Building, Mamulpet, Chickpet, Bengaluru, Karnataka 560053, India",099006 59471,https://t.me/mayurnovelty,4.6,172,OPERATIONAL,12.968748,77.5755461,Imitation Jewellery,B,Monday: 10:00 AM – 8:00 PM,https://maps.google.com/?cid=12774534806508620822&g_mp=Cidnb29nbGUubWFwcy5wbGFjZXMudjEuUGxhY2VzLlNlYXJjaFRleHQQAhgEIAA,pending,Google Maps API
Meenakshi fashion and Prince Micro Gold,"Visvanathan building, 70/1, Mamulpet, Chickpet, Bengaluru, Karnataka 560053, India",094497 53129,,4.8,6,OPERATIONAL,12.9685811,77.5758544,Imitation Jewellery,B,Monday: 9:00 AM – 9:00 PM,https://maps.google.com/?cid=7541503451882228942&g_mp=Cidnb29nbGUubWFwcy5wbGFjZXMudjEuUGxhY2VzLlNlYXJjaFRleHQQAhgEIAA,pending,Google Maps API
Meghdoot fashion jewellery,"2 nd FLOOR, S N PLAZA, opp. RAGHVENDRA HOTEL, near RAKESH PLASTICS, Mamulpet, Chickpet, Bengaluru, Karnataka 560053, India",096111 22231,https://meghdootfashions.com/,4.7,267,OPERATIONAL,12.9689509,77.57537289999999,Imitation Jewellery,B,Monday: 10:30 AM – 8:30 PM,https://maps.google.com/?cid=13518007293897376011&g_mp=Cidnb29nbGUubWFwcy5wbGFjZXMudjEuUGxhY2VzLlNlYXJjaFRleHQQAhgEIAA,pending,Google Maps API
Om Vidhi creations,"29,M.T street 1st cross R.T street.Chickpet Landmark, opposite to Goutham jewellers, Anchepet, Chickpet, Bengaluru, Karnataka 560053, India",090196 30324,,4.9,87,OPERATIONAL,12.9702401,77.5788302,Imitation Jewellery,B,Monday: 11:00 AM – 8:30 PM,https://maps.google.com/?cid=1429225666077507875&g_mp=Cidnb29nbGUubWFwcy5wbGFjZXMudjEuUGxhY2VzLlNlYXJjaFRleHQQAhgEIAA,pending,Google Maps API
PRASAD NOVELTIES,"Mahalakshmi Mansion, # 6, Avenue Road Cross, BT St, Anchepet, Chickpet, Bengaluru, Karnataka 560053, India",080 4269 9699,https://3dtour.dgtechsoln.com/prasad-novelties/,4.8,1589,OPERATIONAL,12.970922,77.5797517,Imitation Jewellery,B,Monday: 10:30 AM – 9:00 PM,https://maps.google.com/?cid=5060333306598422902&g_mp=Cidnb29nbGUubWFwcy5wbGFjZXMudjEuUGxhY2VzLlNlYXJjaFRleHQQAhgEIAA,pending,Google Maps API
Prabhath Fancy Stores,"padamavati complex, D.C. Plaza, no6, ASR street, near ragvendra prasana hotel, Santhusapet, Chickpet, Bengaluru, Karnataka 560053, India",094485 08367,https://sites.google.com/view/krion-fancy/catlogue,4.7,147,OPERATIONAL,12.9692881,77.5753077,Imitation Jewellery,B,Monday: 9:00 AM – 8:00 PM,https://maps.google.com/?cid=3519667254209370835&g_mp=Cidnb29nbGUubWFwcy5wbGFjZXMudjEuUGxhY2VzLlNlYXJjaFRleHQQAhgEIAA,pending,Google Maps API
R C Scientific Gold / Vani Gold/Srivani,"7, AS Char St, Ranasinghpete, Chickpet, Bengaluru, Karnataka 560053, India",080 2287 0088,,4.4,202,OPERATIONAL,12.969386,77.575576,Imitation Jewellery,B,Monday: 11:00 AM – 8:00 PM,https://maps.google.com/?cid=7221041995437323396&g_mp=Cidnb29nbGUubWFwcy5wbGFjZXMudjEuUGxhY2VzLlNlYXJjaFRleHQQAhgEIAA,pending,Google Maps API
Rishabh Fancy Store,"230 Main Road, Rangaswamy Temple St, near Manak Mawa, Anchepet, Chickpet, Bengaluru, Karnataka 560053, India",099640 18261,,4.8,237,OPERATIONAL,12.9708329,77.5781561,Imitation Jewellery,B,Monday: 9:00 AM – 9:00 PM,https://maps.google.com/?cid=12176616841875781118&g_mp=Cidnb29nbGUubWFwcy5wbGFjZXMudjEuUGxhY2VzLlNlYXJjaFRleHQQAhgEIAA,pending,Google Maps API
Shree Impex,"No5/1 P S Lane, Santhusapet, Chickpet, Bengaluru, Karnataka 560053, India",096115 96491,https://www.shreeimpex.co.in/,4.4,192,OPERATIONAL,12.969507799999999,77.5751021,Imitation Jewellery,B,Monday: 9:00 AM – 8:00 PM,https://maps.google.com/?cid=14047808553746217215&g_mp=Cidnb29nbGUubWFwcy5wbGFjZXMudjEuUGxhY2VzLlNlYXJjaFRleHQQAhgEIAA,pending,Google Maps API
Sky Imitation Jewellery,"Shop No 159,ground floor, Old Taluk Cutchery Rd, near Mahalakshmi silks, Kumbarpet, Huriopet, Chickpet, Bengaluru, Karnataka 560053, India",075300 01512,,5,2,OPERATIONAL,12.9681415,77.57845449999999,Imitation Jewellery,B,Monday: 10:00 AM – 8:30 PM,https://maps.google.com/?cid=5919973211274209697&g_mp=Cidnb29nbGUubWFwcy5wbGFjZXMudjEuUGxhY2VzLlNlYXJjaFRleHQQAhgEIAA,pending,Google Maps API
Sri Jaya Jewellery (GOLD COVERING) Bangaluru,"opposite Sudarshan Siliks, 710, Manandi Complex, near Kuberan Silks, Ragipet, Mamulpet, Chickpet, Bengaluru, Karnataka 560053, India",080 4147 7666,https://srijayajewellery.in/,4,27,OPERATIONAL,12.969177799999999,77.5766213,Imitation Jewellery,B,Monday: 10:30 AM – 8:30 PM,https://maps.google.com/?cid=6807460096974612783&g_mp=Cidnb29nbGUubWFwcy5wbGFjZXMudjEuUGxhY2VzLlNlYXJjaFRleHQQAhgEIAA,pending,Google Maps API
Sri Krishitha Gold Covering ( Imitation Jewellery),"589, Avenue Rd, opp. Madhuvan Hotel, Anchepet, Nagarathpete, Bengaluru, Karnataka 560053, India",099014 83843,,3.7,3,OPERATIONAL,12.9702972,77.5798659,Imitation Jewellery,B,Monday: 10:30 AM – 9:00 PM,https://maps.google.com/?cid=13721116164158461813&g_mp=Cidnb29nbGUubWFwcy5wbGFjZXMudjEuUGxhY2VzLlNlYXJjaFRleHQQAhgEIAA,pending,Google Maps API
Sri Lakshmi gold covering,"Next Hanuman temple, 326, Chickpet Rd, Balepete, Chickpet, Bengaluru, Karnataka 560053, India",081054 83206,,4,9,OPERATIONAL,12.970587799999999,77.574439,Imitation Jewellery,B,Monday: 10:00 AM – 9:00 PM,https://maps.google.com/?cid=10761639655006404765&g_mp=Cidnb29nbGUubWFwcy5wbGFjZXMudjEuUGxhY2VzLlNlYXJjaFRleHQQAhgEIAA,pending,Google Maps API
Swastik Jewellery,"Metro Station, 44, AS Char St, near Chickpet, O.T.Pet, Mamulpet, Chickpet, Bengaluru, Karnataka 560053, India",094486 80571,,4.9,42,OPERATIONAL,12.9683488,77.5749708,Imitation Jewellery,B,Monday: 9:00 AM – 9:00 PM,https://maps.google.com/?cid=466799664700896604&g_mp=Cidnb29nbGUubWFwcy5wbGFjZXMudjEuUGxhY2VzLlNlYXJjaFRleHQQAhgEIAA,pending,Google Maps API
Vijay Jewellery imitation xperts,"50, Old Kasai Rd, Ragipet, Kumbarpet, Dodpete, Nagarathpete, Bengaluru, Karnataka 560002, India",095900 65313,,4.6,57,OPERATIONAL,12.9662843,77.5781413,Imitation Jewellery,B,Monday: 11:00 AM – 8:00 PM,https://maps.google.com/?cid=2754995660150325440&g_mp=Cidnb29nbGUubWFwcy5wbGFjZXMudjEuUGxhY2VzLlNlYXJjaFRleHQQAhgEIAA,pending,Google Maps API
Sri Alankar Card Palace (ಅಲಂಕಾರ್ ಕಾರ್ಡ್),"27, opp. to Shree Charan bank, Santhusapet, Chickpet, Bengaluru, Karnataka 560053, India",080957 71783,,4.7,197,OPERATIONAL,12.9697728,77.5733399,Invitation Covers,B,Monday: 10:00 AM – 9:00 PM,https://maps.google.com/?cid=17714273360874818396&g_mp=Cidnb29nbGUubWFwcy5wbGFjZXMudjEuUGxhY2VzLlNlYXJjaFRleHQQAhgEIAA,pending,Google Maps API
AKSHAYA JEWELS,"basement shop, 494, Avenue Rd, opposite Raja Market, Kumbarpet, Mamulpet, Chickpet, Bengaluru, Karnataka 560053, India",094499 89249,,4.8,77,OPERATIONAL,12.967794399999999,77.5785044,Jewellery,C,Monday: 11:30 AM – 8:00 PM,https://maps.google.com/?cid=12376328776096892072&g_mp=Cidnb29nbGUubWFwcy5wbGFjZXMudjEuUGxhY2VzLlNlYXJjaFRleHQQAhgEIAA,pending,Google Maps API
Adeshwar Diamond,"Devi Krupa building, 16/86, Chowdeshwari Temple St, Kumbarpet, Ganigarpet, Nagarathpete, Bengaluru, Karnataka 560002, India",,,5,35,OPERATIONAL,12.9682015,77.5793637,Jewellery,C,Monday: 11:30 AM – 8:30 PM,https://maps.google.com/?cid=16609429720612703135&g_mp=Cidnb29nbGUubWFwcy5wbGFjZXMudjEuUGxhY2VzLlNlYXJjaFRleHQQAhgEIAA,pending,Google Maps API
Ajantha Jewellers,"No. 69, Paradise Mansion, Avenue Rd, Anchepet, Chickpet, Bengaluru, Karnataka 560053, India",080 2221 2641,,4.3,44,OPERATIONAL,12.9705274,77.579973,Jewellery,C,Monday: 11:30 AM – 8:00 PM,https://maps.google.com/?cid=1558299327841816678&g_mp=Cidnb29nbGUubWFwcy5wbGFjZXMudjEuUGxhY2VzLlNlYXJjaFRleHQQAhgEIAA,pending,Google Maps API
DIAMOND FANCY STORE,"Srinidhi Complex, Balepete Main Rd, Huriopet, Chickpet, Bengaluru, Karnataka 560053, India",089514 88590,https://www.instagram.com/diamond_fancy_store_?igsh=MWU1Y2d6MnYzaWJv&utm_source=qr,4.9,19,OPERATIONAL,12.972077500000001,77.5744327,Jewellery,C,Monday: 8:30 AM – 8:30 PM,https://maps.google.com/?cid=470886598249879921&g_mp=Cidnb29nbGUubWFwcy5wbGFjZXMudjEuUGxhY2VzLlNlYXJjaFRleHQQAhgEIAA,pending,Google Maps API
Davanam Jewellerrs Pvt. Ltd.,"506/507, Avenue Rd, Kumbarpet, Huriopet, Chickpet, Bengaluru, Karnataka 560053, India",080 4343 8383,http://www.davanam.com/,4,58,OPERATIONAL,12.9683162,77.5787541,Jewellery,C,Monday: 10:30 AM – 8:00 PM,https://maps.google.com/?cid=12731173118059337153&g_mp=Cidnb29nbGUubWFwcy5wbGFjZXMudjEuUGxhY2VzLlNlYXJjaFRleHQQAhgEIAA,pending,Google Maps API
Deepa Jewellers,"848, Nagarathpet Main Rd, Kumbarpet, Ganigarpet, Nagarathpete, Bengaluru, Karnataka 560002, India",098453 42123,,4.4,34,OPERATIONAL,12.9676388,77.5792809,Jewellery,C,Monday: 10:00 AM – 8:00 PM,https://maps.google.com/?cid=2031107905992359185&g_mp=Cidnb29nbGUubWFwcy5wbGFjZXMudjEuUGxhY2VzLlNlYXJjaFRleHQQAhgEIAA,pending,Google Maps API
Dhanlakshmi Silver,"Shivakrupa Complex, 15/1, Chowdeshwari Temple St, Kumbarpet, Ganigarpet, Nagarathpete, Bengaluru, Karnataka 560002, India",080 4854 3393,,4.8,19,OPERATIONAL,12.968179399999999,77.5793568,Jewellery,C,Monday: 12:30 – 8:00 PM,https://maps.google.com/?cid=18244664966964582964&g_mp=Cidnb29nbGUubWFwcy5wbGFjZXMudjEuUGxhY2VzLlNlYXJjaFRleHQQAhgEIAA,pending,Google Maps API
GJ Gold,"169,ok Road, Nagarathpet Cross, Raja Market Parallel, To, Avenue Rd, Kumbarpet, Ganigarpet, Nagarathpete, Bengaluru, Karnataka 560002, India",099866 42435,,5,8,OPERATIONAL,12.967652999999999,77.5790633,Jewellery,C,Monday: 11:30 AM – 8:30 PM,https://maps.google.com/?cid=11883296008042101766&g_mp=Cidnb29nbGUubWFwcy5wbGFjZXMudjEuUGxhY2VzLlNlYXJjaFRleHQQAhgEIAA,pending,Google Maps API
GLITIANI Sterling Silver Jewellery,"29,Mallikarjuna Temple street, cross, BVK Iyengar Rd, near Ram Mandir Road, Huriopet, Chickpet, Bengaluru, Karnataka 560053, India",080 4124 3609,,4.4,15,OPERATIONAL,12.970313599999999,77.577302,Jewellery,C,Monday: 10:00 AM – 7:00 PM,https://maps.google.com/?cid=11064167183277524922&g_mp=Cidnb29nbGUubWFwcy5wbGFjZXMudjEuUGxhY2VzLlNlYXJjaFRleHQQAhgEIAA,pending,Google Maps API
GOUTHAM JEWELLERS,"Thigalarpet, Kumbarpet, Ganigarpet, Nagarathpete, Bengaluru, Karnataka 560002, India",080 4124 7201,,3.7,159,OPERATIONAL,12.966173399999999,77.5818752,Jewellery,C,Monday: 11:00 AM – 9:00 PM,https://maps.google.com/?cid=2602855233047470817&g_mp=Cidnb29nbGUubWFwcy5wbGFjZXMudjEuUGxhY2VzLlNlYXJjaFRleHQQAhgEIAA,pending,Google Maps API
GSR GRAND SILVER JEWELLERY,"88/1, B.T street, Diwan Khan Ln, behind rice memorial church, Anchepet, Chickpet, Bengaluru, Karnataka 560053, India",091418 74248,,4.7,24,OPERATIONAL,12.9709472,77.579916,Jewellery,C,Monday: 11:00 AM – 8:00 PM,https://maps.google.com/?cid=3077600488227528370&g_mp=Cidnb29nbGUubWFwcy5wbGFjZXMudjEuUGxhY2VzLlNlYXJjaFRleHQQAhgEIAA,pending,Google Maps API
HERITAGE JEWELRY,"123/124, shop No 8, Sri Raghavendra Market, Ground floor, Avenue Rd, Kumbarpet, Ganigarpet, Nagarathpete, Bengaluru, Karnataka 560002, India",,,5,11,OPERATIONAL,12.968858899999999,77.57949920000001,Jewellery,C,Monday: 11:00 AM – 8:00 PM,https://maps.google.com/?cid=5456402595263790168&g_mp=Cidnb29nbGUubWFwcy5wbGFjZXMudjEuUGxhY2VzLlNlYXJjaFRleHQQAhgEIAA,pending,Google Maps API
HJR JEWELS & DIAMONDS,"98/99, CT St, Kumbarpet, Ganigarpet, Nagarathpete, Bengaluru, Karnataka 560002, India",,,4.2,374,OPERATIONAL,12.9681164,77.5793709,Jewellery,C,Monday: 11:30 AM – 8:00 PM,https://maps.google.com/?cid=1615745124391841426&g_mp=Cidnb29nbGUubWFwcy5wbGFjZXMudjEuUGxhY2VzLlNlYXJjaFRleHQQAhgEIAA,pending,Google Maps API
House of Menghraj,"BLOCK-D, D7, JC Rd, Bengaluru, Karnataka 560027, India",074830 85374,https://menghraj.com/,4.9,601,OPERATIONAL,12.964576899999999,77.58638069999999,Jewellery,C,Monday: 11:00 AM – 7:30 PM,https://maps.google.com/?cid=17303892535134124471&g_mp=Cidnb29nbGUubWFwcy5wbGFjZXMudjEuUGxhY2VzLlNlYXJjaFRleHQQAhgEIAA,pending,Google Maps API
JAYALAKSHMI & CO : Antique Jewels &Gems,"170, Old Kasai Rd, near Raja Market, Kumbarpet, Ganigarpet, Nagarathpete, Bengaluru, Karnataka 560002, India",092431 13131,https://nfc.dgtechsoln.com/jayalakshmi-and-co-jewellers/,5,176,OPERATIONAL,12.9676783,77.5790316,Jewellery,C,Monday: 11:00 AM – 8:00 PM,https://maps.google.com/?cid=4125863380739969220&g_mp=Cidnb29nbGUubWFwcy5wbGFjZXMudjEuUGxhY2VzLlNlYXJjaFRleHQQAhgEIAA,pending,Google Maps API
Jain Diamond,"4th floor, Chowdeshwari Temple, 113, Chowdeshwari Temple St, Ganigarpet, Nagarathpete, Bengaluru, Karnataka 560002, India",,,5,3,OPERATIONAL,12.969325699999999,77.5797836,Jewellery,C,Monday: 10:30 AM – 8:00 PM,https://maps.google.com/?cid=4876057204640200837&g_mp=Cidnb29nbGUubWFwcy5wbGFjZXMudjEuUGxhY2VzLlNlYXJjaFRleHQQAhgEIAA,pending,Google Maps API
Jain Jewellers,"No. 934 Purandara, Nagarathpet Main Rd, Medarpet, Kumbarpet, Ganigarpet, Nagarathpete, Bengaluru, Karnataka 560002, India",080 4151 7585,,4.1,70,OPERATIONAL,12.966648699999999,77.5812203,Jewellery,C,Monday: 10:00 AM – 8:30 PM,https://maps.google.com/?cid=11839229997366833842&g_mp=Cidnb29nbGUubWFwcy5wbGFjZXMudjEuUGxhY2VzLlNlYXJjaFRleHQQAhgEIAA,pending,Google Maps API
Jewel Mart,"830,831, Gate #1, 832, Nagarathpet Main Rd, opp. Raja market, Kumbarpet, Ganigarpet, Nagarathpete, Bengaluru, Karnataka 560002, India",074119 25925,,4.3,47,OPERATIONAL,12.9679302,77.5789145,Jewellery,C,Monday: 11:00 AM – 8:30 PM,https://maps.google.com/?cid=1983483665758619513&g_mp=Cidnb29nbGUubWFwcy5wbGFjZXMudjEuUGxhY2VzLlNlYXJjaFRleHQQAhgEIAA,pending,Google Maps API
KPS Silver or KPS JEWELLERS,"905, Nagarathpet Main Rd, Medarpet, Kumbarpet, Ganigarpet, Nagarathpete, Bengaluru, Karnataka 560002, India",080 4153 0099,,4.1,48,OPERATIONAL,12.9666759,77.5811721,Jewellery,C,Monday: 11:00 AM – 8:00 PM,https://maps.google.com/?cid=3054551137486859103&g_mp=Cidnb29nbGUubWFwcy5wbGFjZXMudjEuUGxhY2VzLlNlYXJjaFRleHQQAhgEIAA,pending,Google Maps API
Lakshmi Jewellery Mart,"494, Avenue Rd, Kumbarpet, Mamulpet, Chickpet, Bengaluru, Karnataka 560053, India",098443 84854,,5,36,OPERATIONAL,12.9677989,77.5784156,Jewellery,C,Monday: 11:30 AM – 7:30 PM,https://maps.google.com/?cid=15335381677872615131&g_mp=Cidnb29nbGUubWFwcy5wbGFjZXMudjEuUGxhY2VzLlNlYXJjaFRleHQQAhgEIAA,pending,Google Maps API
M P Diamonds,"No.56, Sai Kamala Arcade, Chowdeshwari Temple St, Ganigarpet, Nagarathpete, Bengaluru, Karnataka 560002, India",088844 88885,http://mpdiamonds.co.in/,5,14,OPERATIONAL,12.9691344,77.5799133,Jewellery,C,Monday: 11:00 AM – 8:00 PM,https://maps.google.com/?cid=6752139337741057765&g_mp=Cidnb29nbGUubWFwcy5wbGFjZXMudjEuUGxhY2VzLlNlYXJjaFRleHQQAhgEIAA,pending,Google Maps API
M.R.K. Silver LLP,"NO. 10, M.M.Complex ,1st & 2nd Floor Bettappa Lane, C.T, Street Cross, Kumbarpet, Ganigarpet, Nagarathpete, Bengaluru, Karnataka 560002, India",098869 64499,https://mrksilver.com/,4.8,49,OPERATIONAL,12.9681649,77.57987469999999,Jewellery,C,Monday: 12:00 – 8:30 PM,https://maps.google.com/?cid=17057457527221848305&g_mp=Cidnb29nbGUubWFwcy5wbGFjZXMudjEuUGxhY2VzLlNlYXJjaFRleHQQAhgEIAA,pending,Google Maps API
Manyatha Gold,"31, Pillappa Ln, opposite to Maruthi Mansion, Kumbarpet, Ganigarpet, Nagarathpete, Bengaluru, Karnataka 560002, India",080 4148 3030,http://www.manyathagold.com/,4.6,62,OPERATIONAL,12.9679849,77.58023709999999,Jewellery,C,Monday: 11:00 AM – 9:00 PM,https://maps.google.com/?cid=17903465980556397358&g_mp=Cidnb29nbGUubWFwcy5wbGFjZXMudjEuUGxhY2VzLlNlYXJjaFRleHQQAhgEIAA,pending,Google Maps API
Mayan Diamonds,"1st Floor, Devi Krupa Building, 86/16, Chowdeshwari Temple St, Kumbarpet, Cross, Nagarathpete, Bengaluru, Karnataka 560002, India",080 4201 7149,http://mayandiamonds.com/,4.2,30,OPERATIONAL,12.9682032,77.5793685,Jewellery,C,Monday: 11:00 AM – 7:30 PM,https://maps.google.com/?cid=18040521122515648572&g_mp=Cidnb29nbGUubWFwcy5wbGFjZXMudjEuUGxhY2VzLlNlYXJjaFRleHQQAhgEIAA,pending,Google Maps API
Merlecha Diamonds (Govt. Approved Valuer Of Jewellery),"F-1 1st Floor, Malkala Market, Chowdeshwari Temple St, Kumbarpet, Ganigarpet, Nagarathpete, Bengaluru, Karnataka 560002, India",098450 47251,,4.8,43,OPERATIONAL,12.968450899999999,77.5796088,Jewellery,C,Monday: 11:30 AM – 8:00 PM,https://maps.google.com/?cid=812176580288980939&g_mp=Cidnb29nbGUubWFwcy5wbGFjZXMudjEuUGxhY2VzLlNlYXJjaFRleHQQAhgEIAA,pending,Google Maps API
Muthas Mahaveer Jewellers,"Mutha Towers, 45, Rangaswamy Temple St, Anchepet, Chickpet, Bengaluru, Karnataka 560053, India",080 4169 5889,,4.9,41,OPERATIONAL,12.970564,77.578499,Jewellery,C,Monday: 11:00 AM – 8:30 PM,https://maps.google.com/?cid=1118961420358870784&g_mp=Cidnb29nbGUubWFwcy5wbGFjZXMudjEuUGxhY2VzLlNlYXJjaFRleHQQAhgEIAA,pending,Google Maps API
NYRA DIAMONDS,"5th floor, Sri Purandara Bhavan, B-10, Thigalarpet, Kumbarpet, Ganigarpet, Nagarathpete, Bengaluru, Karnataka 560002, India",,http://nyradiamonds.in/,5,19,OPERATIONAL,12.966312199999999,77.5818573,Jewellery,C,Monday: 11:00 AM – 8:00 PM,https://maps.google.com/?cid=2862702111817668196&g_mp=Cidnb29nbGUubWFwcy5wbGFjZXMudjEuUGxhY2VzLlNlYXJjaFRleHQQAhgEIAA,pending,Google Maps API
Naksh jewel,"2nd floor, purandara Bhavana, 390, Nagarathpet Main Rd, above Jain Jewellers, Thigalarpet, Kumbarpet, Ganigarpet, Nagarathpete, Bengaluru, Karnataka 560002, India",,,5,74,OPERATIONAL,12.9662882,77.5818567,Jewellery,C,Monday: 11:00 AM – 7:30 PM,https://maps.google.com/?cid=10559639600756685496&g_mp=Cidnb29nbGUubWFwcy5wbGFjZXMudjEuUGxhY2VzLlNlYXJjaFRleHQQAhgEIAA,pending,Google Maps API
Original Baby Prakash Diamonds,"RAJA MARKET, 30, Avenue Rd, Kumbarpet, Ganigarpet, Nagarathpete, Bengaluru, Karnataka 560002, India",098457 05544,,4.6,17,OPERATIONAL,12.9674617,77.57863379999999,Jewellery,C,Monday: 12:30 – 7:30 PM,https://maps.google.com/?cid=12981710319972278039&g_mp=Cidnb29nbGUubWFwcy5wbGFjZXMudjEuUGxhY2VzLlNlYXJjaFRleHQQAhgEIAA,pending,Google Maps API
